X,Y,OBJECTID,GIS_DB_ID,Sign_Up,Route,Direction,Sequence,Stop_ID,Stop_Abbreviation,Stop_Name,Mode,Time_Point,Time_Point_ID,Time_Point_Abbreviation,School,Source,Comments,Weekday_Boards,Weekday_Leaves,Weekday_Total,Saturday_Boards,Saturday_Leaves,Saturday_Total,Sunday_Boards,Sunday_Leaves,Sunday_Total,Latitude,Longitude,GlobalID
-75.262403,39.919139,1,,Elmwood,11,Eastbound,1,305,DARTRA1,Darby Transportation Center Old,Trolley,Yes,186,DATE,No,APC (UTA),,1360,0,1360,482,0,482,298,0,298,39.919139,-75.262403,1f26485b-147b-49c0-b282-3384c9e75749
-75.260089,39.918044,2,1124568E,Elmwood,11,Eastbound,2,24568,MAIMISEA,Main St & Mill St,Trolley,No,0,,No,APC (UTA),,43,6,49,21,2,23,12,0,12,39.918044,-75.260089,9becda9b-61a0-41b8-827a-255ba99bcfc1
-75.257315,39.918088,3,1120697E,Elmwood,11,Eastbound,3,20697,MAISUMEA,Main St & Summit St,Trolley,No,0,,No,APC (UTA),,40,9,49,13,3,16,4,1,5,39.918088,-75.257315,df0d528c-e16f-4150-8ade-a1018dd50271
-75.255842,39.917752,4,1120698E,Elmwood,11,Eastbound,4,20698,MAI6THEA,Main St & 6th St,Trolley,No,0,,No,APC (UTA),,85,31,116,28,11,39,18,8,26,39.917752,-75.255842,4c3d8cf4-0e50-436c-a746-e0b932a6e0e4
-75.254586,39.917479,5,1120699E,Elmwood,11,Eastbound,5,20699,MAI5THEA,Main St & 5th St,Trolley,No,0,,No,APC (UTA),,163,29,192,45,12,57,52,7,59,39.917479,-75.254586,59e90ade-6e03-497e-bef2-69d52d009b44
-75.253011,39.917115,6,1120700E,Elmwood,11,Eastbound,6,20700,MAI4THEA,Main St & 4th St,Trolley,No,0,,No,APC (UTA),,144,42,186,42,14,56,40,5,45,39.917115,-75.253011,4e986028-b27e-482e-bb41-505f883385e8
-75.251833,39.916857,7,1120701E,Elmwood,11,Eastbound,7,20701,MAI3RDEA,Main St & 3rd St,Trolley,No,0,,No,APC (UTA),,125,40,165,54,14,68,35,10,45,39.916857,-75.251833,8849a6ec-9cc8-453c-8024-95f3ac4c66e8
-75.250567,39.916579,8,1120702E,Elmwood,11,Eastbound,8,20702,MAI2NDEA,Main St & 2nd St,Trolley,No,0,,No,APC (UTA),,69,22,91,25,9,34,15,3,18,39.916579,-75.250567,0d6ce654-b257-432b-8fab-a1562785b917
-75.249199,39.916354,9,1120703E,Elmwood,11,Eastbound,9,20703,MAIFROEA,Main St & Front St,Trolley,No,0,,No,APC (UTA),,73,17,90,26,4,30,12,6,18,39.916354,-75.249199,2b76ef07-91d7-491f-b3d9-fd69cce12072
-75.24637,39.917101,10,1120704E,Elmwood,11,Eastbound,10,20704,WOOISLNE,Woodland Av & Island Av,Trolley,Yes,185,ISWO,No,APC (UTA),,128,59,187,55,27,82,26,16,42,39.917101,-75.24637,ed861db1-7922-4414-8293-9c6bbd0f45b1
-75.244413,39.918404,11,1120705E,Elmwood,11,Eastbound,11,20705,WOO72NNE,Woodland Av & 72nd St,Trolley,No,0,,No,APC (UTA),,88,18,106,24,5,29,7,1,8,39.918404,-75.244413,47553c51-e0b0-436a-90aa-592dbf655e46
-75.243023,39.91936,12,1120706E,Elmwood,11,Eastbound,12,20706,WOO71SNE,Woodland Av & 71st St,Trolley,No,0,,No,APC (UTA),,128,17,145,36,4,40,31,5,36,39.91936,-75.243023,a49129f7-0d12-461d-9639-9dc97a66d2da
-75.24147,39.920448,13,1120707E,Elmwood,11,Eastbound,13,20707,WOO7OTNE,Woodland Av & 70th St,Trolley,Yes,0,70WO,No,APC (UTA),,136,35,171,37,11,48,24,6,30,39.920448,-75.24147,48f7c82d-9c33-4ad0-b61d-127b433709d9
-75.240084,39.921439,14,1120708E,Elmwood,11,Eastbound,14,20708,WOO69TNE,Woodland Av & 69th St,Trolley,No,0,,No,APC (UTA),,108,16,124,35,5,40,30,3,33,39.921439,-75.240084,0fd418f0-8e48-45e1-b353-67880b784ec5
-75.238419,39.922592,15,1120709E,Elmwood,11,Eastbound,15,20709,WOO68TNE,Woodland Av & 68th St,Trolley,No,0,,No,APC (UTA),,152,36,188,56,10,66,29,8,37,39.922592,-75.238419,7364ece3-9067-4524-847f-e08c07bfae85
-75.236902,39.923667,16,1120710E,Elmwood,11,Eastbound,16,20710,WOO67TNE,Woodland Av & 67th St,Trolley,No,0,,No,APC (UTA),,183,43,226,59,19,78,31,12,43,39.923667,-75.236902,5ddb6374-946f-4084-9cd8-4ef21a90dd99
-75.235595,39.924588,17,1120711E,Elmwood,11,Eastbound,17,20711,WOO66TNE,Woodland Av & 66th St,Trolley,No,0,,No,APC (UTA),,125,43,168,39,23,62,23,13,36,39.924588,-75.235595,b88a1541-75a2-4380-a064-861805a97d31
-75.234354,39.925465,18,1120712E,Elmwood,11,Eastbound,18,20712,WOO65TNE,Woodland Av & 65th St,Trolley,No,0,,No,APC (UTA),,292,116,408,116,36,152,70,30,100,39.925465,-75.234354,57e28468-8530-4638-be81-d88c08dcc8c2
-75.233115,39.926332,19,1120713E,Elmwood,11,Eastbound,19,20713,WOO64TNE,Woodland Av & 64th St,Trolley,No,0,,No,APC (UTA),,125,53,178,38,26,64,21,7,28,39.926332,-75.233115,1ec7325f-cb2f-4e41-b233-c443eab38b09
-75.231746,39.927302,20,1120714E,Elmwood,11,Eastbound,20,20714,WOO63RNE,Woodland Av & 63rd St,Trolley,No,0,,No,APC (UTA),,127,50,177,51,21,72,34,10,44,39.927302,-75.231746,26c6d6fa-85db-4ed0-85e4-98aaa29433aa
-75.230734,39.928008,21,1120715E,Elmwood,11,Eastbound,21,20715,WOO62NNE,Woodland Av & 62nd St,Trolley,Yes,114,62WO,No,APC (UTA),,254,222,476,96,74,170,58,35,93,39.928008,-75.230734,71fc3684-4dd4-4699-a042-672bdb95608f
-75.229288,39.929021,22,1120717E,Elmwood,11,Eastbound,22,20717,WOO61SNE,Woodland Av & 61st St,Trolley,No,0,,No,APC (UTA),,173,97,270,78,26,104,30,14,44,39.929021,-75.229288,e0f1fc04-ac2c-45e8-9816-d5d89bc55383
-75.227665,39.930196,23,1120716E,Elmwood,11,Eastbound,23,20716,WOO60TNE,Woodland Av & 60th St,Trolley,No,0,,No,APC (UTA),,57,39,96,35,22,57,16,16,32,39.930196,-75.227665,2a452481-a0b9-4516-a528-37edac87a375
-75.224654,39.932282,24,1120718E,Elmwood,11,Eastbound,24,20718,WOO58TNE,Woodland Av & 58th St,Trolley,Yes,0,58WO,No,APC (UTA),,139,141,280,56,86,142,40,61,101,39.932282,-75.224654,1a5b9039-a591-4538-82df-c88f9ef1a56d
-75.223267,39.933275,25,1120719E,Elmwood,11,Eastbound,25,20719,WOO57TNE,Woodland Av & 57th St,Trolley,No,0,,No,APC (UTA),,51,38,89,20,13,33,26,7,33,39.933275,-75.223267,4b0f447c-61d8-44ac-962e-c239c670a3c5
-75.221771,39.934319,26,1120720E,Elmwood,11,Eastbound,26,20720,WOO56TNE,Woodland Av & 56th St,Trolley,No,0,,No,APC (UTA),,116,71,187,16,13,29,6,4,10,39.934319,-75.221771,5a351707-7801-4fab-8364-8070cbce2a83
-75.220379,39.935295,27,1120721E,Elmwood,11,Eastbound,27,20721,WOO55TNE,Woodland Av & 55th St,Trolley,No,0,,No,APC (UTA),,66,65,131,16,27,43,3,6,9,39.935295,-75.220379,825f55a5-99a2-469a-9129-d6393b6a165d
-75.219019,39.936226,28,1120722E,Elmwood,11,Eastbound,28,20722,WOO54TNE,Woodland Av & 54th St,Trolley,Yes,0,54WO,No,APC (UTA),,161,290,451,38,94,132,30,34,64,39.936226,-75.219019,521ea9b3-96c1-45b9-8dec-0f799b48610c
-75.217668,39.937209,29,1121208E,Elmwood,11,Eastbound,29,21208,WOO53RNE,Woodland Av & 53rd St,Trolley,No,0,,No,APC (UTA),,42,47,89,15,18,33,4,10,14,39.937209,-75.217668,d701fd5b-d06d-48d5-a20c-6c5c4acac247
-75.21627,39.938178,30,1120723E,Elmwood,11,Eastbound,30,20723,WOO52NNE,Woodland Av & 52nd St,Trolley,No,0,,No,APC (UTA),,100,69,169,26,14,40,10,7,17,39.938178,-75.21627,0b029667-5b1d-4ae8-915d-9469f7ee4c51
-75.215166,39.938982,31,1120724E,Elmwood,11,Eastbound,31,20724,WOO51SNE,Woodland Av & 51st St,Trolley,No,0,,No,APC (UTA),,25,18,43,6,5,11,4,1,5,39.938982,-75.215166,7a69e0d7-6335-4a09-8793-3a8f89274ecd
-75.213906,39.93984,32,1120725E,Elmwood,11,Eastbound,32,20725,WOO50TNE,Woodland Av & 50th St,Trolley,Yes,0,50WO,No,APC (UTA),,89,172,261,32,50,82,12,23,35,39.93984,-75.213906,f8839fc9-e594-4413-989d-3457546d60ab
-75.212624,39.94074,33,11297E,Elmwood,11,Eastbound,33,297,WOO49TNE,Woodland Av & 49th St,Trolley,Yes,187,49WO,No,APC (UTA),,78,126,204,13,25,38,8,15,23,39.94074,-75.212624,2a28b0c4-ec4a-4d6b-b423-6d2245d9a047
-75.211712,39.94192,34,1120726E,Elmwood,11,Eastbound,34,20726,WOO48TNE,Woodland Av & 48th St,Trolley,No,0,,No,APC (UTA),,33,4,37,4,3,7,0,0,0,39.94192,-75.211712,4cccc726-067d-4da6-ad4d-0f74d6bd9554
-75.210826,39.94321,35,1120958E,Elmwood,11,Eastbound,35,20958,WOO47TNE,Woodland Av & 47th St,Trolley,No,0,,No,APC (UTA),,46,17,63,5,5,10,1,0,1,39.94321,-75.210826,b2caa71e-4940-4b60-9740-9728776ef154
-75.209763,39.944316,36,1120727E,Elmwood,11,Eastbound,36,20727,WOO46TNE,Woodland Av & 46th St,Trolley,No,0,,No,APC (UTA),,45,13,58,7,1,8,8,0,8,39.944316,-75.209763,44e76c32-8572-47af-8c48-77f81267d1cf
-75.208639,39.945304,37,1120728E,Elmwood,11,Eastbound,37,20728,WOO45TNE,Woodland Av & 45th St,Trolley,No,0,,No,APC (UTA),,17,11,28,2,3,5,0,1,1,39.945304,-75.208639,0fa9078a-d675-4f72-9f97-ca143faebe83
-75.207041,39.946665,38,1120729E,Elmwood,11,Eastbound,38,20729,WOO42NNE,Woodland Av & 42nd St,Trolley,No,0,,No,APC (UTA),,27,13,40,1,1,2,2,0,2,39.946665,-75.207041,c70b905e-fc0b-4b20-b5cf-f9aaa11d77cf
-75.205574,39.948063,39,1120735E,Elmwood,11,Eastbound,39,20735,WOO41SNE,Woodland Av & 41st St,Trolley,No,0,,No,APC (UTA),,7,2,9,1,1,2,1,0,1,39.948063,-75.205574,8bc3a3f2-a90a-4739-9690-5f3b92cf4f78
-75.204963,39.948503,40,1120925E,Elmwood,11,Eastbound,40,20925,WOOCHENE,Woodland Av & Chester Av,Trolley,No,0,,No,APC (UTA),,6,1,7,1,1,2,0,0,0,39.948503,-75.204963,462dc143-fd2d-43b0-848f-4fdc6c10fd9e
-75.203332,39.949409,41,1120804E,Elmwood,11,Eastbound,41,20804,40TPORNE,40th St Trolley Portal,Trolley,Yes,188,40PO,No,APC (UTA),,516,166,682,185,47,232,104,50,154,39.949409,-75.203332,e9efdc6d-c4f2-4abe-9342-a6441b5d7b24
-75.202021,39.957259,42,1121248E,Elmwood,11,Eastbound,42,21248,40TMARSO,40th St & Market St,Trolley,Yes,189,40MK,No,APC (UTA),,0,0,0,,,,0,2,2,39.957259,-75.202021,602a22c0-a1be-4f1a-9e86-4cd0bdbd55d0
-75.197247,39.950914,43,1120731E,Elmwood,11,Eastbound,43,20731,SP37NEU,37th St Trolley Station,Trolley,No,0,,No,APC (UTA),,174,127,301,28,22,50,14,20,34,39.950914,-75.197247,8a81fce0-54df-4eb7-81c2-bef6038c9a47
-75.194505,39.953848,44,1120732E,Elmwood,11,Eastbound,44,20732,36SANOU,36th St Trolley Station,Trolley,No,0,,No,APC (UTA),,175,93,268,22,16,38,11,11,22,39.953848,-75.194505,c61ff9b1-c46a-427c-bdd3-ee22d02d3af1
-75.189707,39.954787,45,1120642E,Elmwood,11,Eastbound,45,20642,33MAEAU,33rd St Trolley Station,Trolley,No,0,,No,APC (UTA),,95,81,176,19,16,35,13,10,23,39.954787,-75.189707,f2d7ae3e-dfc1-4633-a735-8f75ee002523
-75.183571,39.95474,46,1120643E,Elmwood,11,Eastbound,46,20643,MA30EAU,30th St Trolley Station,Trolley,Yes,0,30MK,No,APC (UTA),,103,237,340,18,54,72,19,44,63,39.95474,-75.183571,307d69e1-4a21-4552-bbf2-08be2e103d69
-75.176791,39.953917,47,1120645E,Elmwood,11,Eastbound,47,20645,MA22EAU,22nd St Trolley Station,Trolley,No,0,,No,APC (UTA),,176,719,895,46,265,311,34,115,149,39.953917,-75.176791,bf476ab4-763f-42ff-993f-f60748a67d86
-75.171679,39.953268,48,1120646E,Elmwood,11,Eastbound,48,20646,MA19EAU,19th St Trolley Station,Trolley,Yes,0,19MK,No,APC (UTA),,178,507,685,40,133,173,26,124,150,39.953268,-75.171679,d35d421a-e053-437d-875a-2cf277108f83
-75.165445,39.952484,49,1131140E,Elmwood,11,Eastbound,49,31140,MA15EAU,15th St Trolley Station,Trolley,No,0,,No,APC (UTA),,272,1866,2138,53,616,669,35,423,458,39.952484,-75.165445,e811bf51-facb-49f4-8514-f07defb647f1
-75.162559,39.952532,50,11283E,Elmwood,11,Eastbound,50,283,JUNSTANO,13th St Trolley Station,Trolley,Yes,183,JUST,No,APC (UTA),,0,1129,1129,0,337,337,0,171,171,39.952532,-75.162559,026e43bc-b144-45a6-8cde-3b69144cdb42
-75.162559,39.952532,51,11283W,Elmwood,11,Westbound,1,283,JUNSTANO,13th St Trolley Station,Trolley,Yes,183,JUST,No,APC (UTA),,3027,2,3029,916,0,916,610,0,610,39.952532,-75.162559,3e0b45c3-e81a-41fb-8d05-b74670c1a13d
-75.165401,39.952698,52,1120659W,Elmwood,11,Westbound,2,20659,MA15WEU,15th St Trolley Station,Trolley,No,0,,No,APC (UTA),,737,421,1158,226,76,302,195,84,279,39.952698,-75.165401,92add9ec-b18b-48a8-b885-9d61152b8e9b
-75.171649710999986,39.953478565000069,53,1120660W,Elmwood,11,Westbound,3,20660,MA19WEU,19th St Trolley Station,Trolley,No,0,,No,APC (UTA),,179,85,264,51,14,65,31,19,50,39.95347857,-75.17164971,f9264a3e-4f48-40f3-9ae5-d6e3f9e4ccee
-75.176759223999966,39.954131210000071,54,1120661W,Elmwood,11,Westbound,4,20661,MA22WEU,22nd St Trolley Station,Trolley,No,0,,No,APC (UTA),,106,170,276,21,30,51,17,40,57,39.95413121,-75.17675922,dfeb87e9-ace3-487c-a264-8cbe8bf3609d
-75.183540157999971,39.954969249000044,55,1120662W,Elmwood,11,Westbound,5,20662,MA30WEU,30th St Trolley Station,Trolley,No,0,,No,APC (UTA),,109,213,322,12,45,57,10,10,20,39.95496925,-75.18354016,996776b9-f9b3-448b-9ccc-1c900efa3be8
-75.189686,39.954908,56,1120658W,Elmwood,11,Westbound,6,20658,33MAWEU,33rd St Trolley Station,Trolley,No,0,,No,APC (UTA),,102,123,225,11,9,20,5,6,11,39.954908,-75.189686,23219627-4c94-405b-b55c-60d43a110f3c
-75.194664,39.953868,57,1120733W,Elmwood,11,Westbound,7,20733,36SASOU,36th St Trolley Station,Trolley,No,0,,No,APC (UTA),,86,92,178,13,2,15,2,3,5,39.953868,-75.194664,ea57c70a-fc46-4d68-8752-807a3ba7f811
-75.197306,39.951048,58,1120734W,Elmwood,11,Westbound,8,20734,SP37SWU,37th St Trolley Station,Trolley,No,0,,No,APC (UTA),,62,47,109,0,3,3,9,3,12,39.951048,-75.197306,41702668-7da3-4337-9d18-26e9b2894a46
-75.202021,39.957259,59,1121248W,Elmwood,11,Westbound,9,21248,40TMARSO,40th St & Market St,Trolley,Yes,189,40MK,No,APC (UTA),,2,0,2,,,,,,,39.957259,-75.202021,3ce0ad76-6d28-4f84-8964-fcc05b988c79
-75.203641,39.949289,60,11301W,Elmwood,11,Westbound,10,301,40TPORSW,40th St Trolley Portal,Trolley,Yes,188,40PO,No,APC (UTA),,177,194,371,25,46,71,49,59,108,39.949289,-75.203641,aef2699d-8119-48c8-9db3-755746cbf9cc
-75.204987,39.948604,61,1120805W,Elmwood,11,Westbound,11,20805,WOOCHESW,Woodland Av & Chester Av,Trolley,No,0,,No,APC (UTA),,13,30,43,1,7,8,4,2,6,39.948604,-75.204987,4b3467e9-21ba-4fcb-a1ba-23677c04bd4f
-75.206889,39.94704,62,1120736W,Elmwood,11,Westbound,12,20736,WOO42NSW,Woodland Av & 42nd St,Trolley,No,0,,No,APC (UTA),,3,17,20,0,0,0,1,0,1,39.94704,-75.206889,00af5d01-8fe8-45f5-8435-d9cf588456e1
-75.208403,39.945793,63,1120737W,Elmwood,11,Westbound,13,20737,WOO43RSW,Woodland Av & 43rd St,Trolley,No,0,,No,APC (UTA),,11,29,40,2,4,6,1,1,2,39.945793,-75.208403,02ede164-9d7a-4991-98cb-6a986b23e549
-75.209741,39.944548,64,1120739W,Elmwood,11,Westbound,14,20739,WOO46TSW,Woodland Av & 46th St,Trolley,No,0,,No,APC (UTA),,22,39,61,3,7,10,0,2,2,39.944548,-75.209741,51f24702-365a-491c-b8fb-05434f4986c2
-75.210913,39.943532,65,1121202W,Elmwood,11,Westbound,15,21202,WOO47TSW,Woodland Av & 47th St,Trolley,,,,No,APC (UTA),,,,,,,,,,,39.943532,-75.210913,fa7e7afa-7b2c-4a96-910e-23cf7ea0a5b4
-75.211577,39.942408,66,1120740W,Elmwood,11,Westbound,16,20740,WOO48TSW,Woodland Av & 48th St,Trolley,No,0,,No,APC (UTA),,13,19,32,0,0,0,1,2,3,39.942408,-75.211577,22376384-5417-4862-ade0-aad82b8d5b85
-75.21259,39.940966,67,11302W,Elmwood,11,Westbound,17,302,WOO49TSW,Woodland Av & 49th St,Trolley,Yes,187,49WOL,No,APC (UTA),,165,79,244,86,25,111,18,11,29,39.940966,-75.21259,431b6dab-af5d-4cc5-b9b2-48fcfab31c07
-75.213819,39.940092,68,11317W,Elmwood,11,Westbound,18,317,WOO50TSW,Woodland Av & 50th St,Trolley,No,0,,No,APC (UTA),,95,67,162,28,16,44,13,11,24,39.940092,-75.213819,24d3e94a-7a17-43ce-8aa9-5dcf138b2e8a
-75.215075,39.939222,69,1120741W,Elmwood,11,Westbound,19,20741,WOO51SSW,Woodland Av & 51st St,Trolley,No,0,,No,APC (UTA),,28,26,54,6,8,14,4,6,10,39.939222,-75.215075,a4627bcc-3dee-4fc2-9cd4-c249d36e21aa
-75.216219,39.938439,70,1120742W,Elmwood,11,Westbound,20,20742,WOO52NSW,Woodland Av & 52nd St,Trolley,No,0,,No,APC (UTA),,60,84,144,15,19,34,8,6,14,39.938439,-75.216219,bad95452-9449-4928-acb1-a61f553f4cf4
-75.21756,39.937461,71,1120743W,Elmwood,11,Westbound,21,20743,WOO53RSW,Woodland Av & 53rd St,Trolley,No,0,,No,APC (UTA),,46,64,110,9,17,26,4,11,15,39.937461,-75.21756,7fed4dff-6070-457d-be65-5d80f1f27dc9
-75.218943,39.936507,72,1120744W,Elmwood,11,Westbound,22,20744,WOO54TSW,Woodland Av & 54th St,Trolley,No,0,,No,APC (UTA),,145,143,288,62,51,113,17,20,37,39.936507,-75.218943,e5cfe142-0f44-4fb7-a95e-c63cd5b139b8
-75.220241,39.935581,73,1120745W,Elmwood,11,Westbound,23,20745,WOO55TSW,Woodland Av & 55th St,Trolley,No,0,,No,APC (UTA),,55,89,144,27,21,48,6,9,15,39.935581,-75.220241,632fd4f6-c85d-42c8-bc51-831d81772cc4
-75.221694,39.934572,74,1120746W,Elmwood,11,Westbound,24,20746,WOO56TSW,Woodland Av & 56th St,Trolley,No,0,,No,APC (UTA),,59,130,189,18,16,34,4,8,12,39.934572,-75.221694,19ec404c-1ba3-476b-b81f-3da632f076c5
-75.223096,39.933576,75,1120747W,Elmwood,11,Westbound,25,20747,WOO57TSW,Woodland Av & 57th St,Trolley,No,0,,No,APC (UTA),,27,54,81,7,24,31,8,10,18,39.933576,-75.223096,c38f8f3f-d2d2-461d-9c4e-ae421496161d
-75.224477,39.932609,76,1120748W,Elmwood,11,Westbound,26,20748,WOO58TSW,Woodland Av & 58th St,Trolley,No,0,,No,APC (UTA),,123,185,308,44,63,107,90,60,150,39.932609,-75.224477,315e016a-5438-4bfa-a8b4-18580602ce07
-75.227581,39.930456,77,1120749W,Elmwood,11,Westbound,27,20749,WOO60TSW,Woodland Av & 60th St,Trolley,No,0,,No,APC (UTA),,58,85,143,16,32,48,13,16,29,39.930456,-75.227581,81e05577-f5e8-4017-9e24-6d914702c6bd
-75.229195,39.929283,78,1120750W,Elmwood,11,Westbound,28,20750,WOO61SSW,Woodland Av & 61st St,Trolley,No,0,,No,APC (UTA),,61,126,187,14,53,67,19,25,44,39.929283,-75.229195,68217551-80be-4aaa-8726-fac493a28e0f
-75.230604,39.928287,79,11303W,Elmwood,11,Westbound,29,303,WOO62NSW,Woodland Av & 62nd St,Trolley,Yes,114,,No,APC (UTA),,147,218,365,58,71,129,32,49,81,39.928287,-75.230604,7056b04e-a2f6-49d7-9ccc-c62e25b7833f
-75.231677,39.927534,80,1120751W,Elmwood,11,Westbound,30,20751,WOO63RSW,Woodland Av & 63rd St,Trolley,No,0,,No,APC (UTA),,57,112,169,32,49,81,10,25,35,39.927534,-75.231677,be0a3f9f-7f8a-48ac-8555-531d70f6f912
-75.233069,39.926564,81,1120752W,Elmwood,11,Westbound,31,20752,WOO64TSW,Woodland Av & 64th St,Trolley,No,0,,No,APC (UTA),,54,136,190,22,44,66,25,25,50,39.926564,-75.233069,09f8e342-e95b-492f-9079-60fd2ba13ff3
-75.2343,39.925704,82,1120753W,Elmwood,11,Westbound,32,20753,WOO65TSW,Woodland Av & 65th St,Trolley,No,0,,No,APC (UTA),,97,292,389,38,96,134,28,54,82,39.925704,-75.2343,8dc88a17-d549-4327-b3a0-870a35eae49d
-75.235539,39.924821,83,1120754W,Elmwood,11,Westbound,33,20754,WOO66TSW,Woodland Av & 66th St,Trolley,No,0,,No,APC (UTA),,46,147,193,12,48,60,10,52,62,39.924821,-75.235539,8c3e14f5-8228-49de-a7c4-5bd06368d408
-75.236873,39.923893,84,1120755W,Elmwood,11,Westbound,34,20755,WOO67TSW,Woodland Av & 67th St,Trolley,No,0,,No,APC (UTA),,43,170,213,11,45,56,13,32,45,39.923893,-75.236873,67726f4f-2f34-45e8-80c3-78550b2be19c
-75.238378,39.92283,85,1120756W,Elmwood,11,Westbound,35,20756,WOO68TSW,Woodland Av & 68th St,Trolley,No,0,,No,APC (UTA),,43,161,204,15,51,66,7,26,33,39.92283,-75.238378,cac7b9dc-7f76-4e98-868a-1471179a9d19
-75.240051,39.921633,86,1120757W,Elmwood,11,Westbound,36,20757,WOO69TSW,Woodland Av & 69th St,Trolley,No,0,,No,APC (UTA),,14,110,124,8,48,56,6,34,40,39.921633,-75.240051,b46a6320-44ad-4deb-b9a8-5d4003d71a5f
-75.241393,39.920707,87,1120758W,Elmwood,11,Westbound,37,20758,WOO70TSW,Woodland Av & 70th St,Trolley,No,0,,No,APC (UTA),,20,144,164,5,45,50,7,36,43,39.920707,-75.241393,7aed7211-8a18-4eb0-861c-0873b9241c4d
-75.24298,39.919593,88,1120759W,Elmwood,11,Westbound,38,20759,WOO71SSW,Woodland Av & 71st St,Trolley,No,0,,No,APC (UTA),,14,121,135,3,32,35,4,21,25,39.919593,-75.24298,42a8cff6-6de2-479e-9844-c6582bbd1c4d
-75.244338,39.918648,89,1120760W,Elmwood,11,Westbound,39,20760,WOO72NSW,Woodland Av & 72nd St,Trolley,No,0,,No,APC (UTA),,14,86,100,4,23,27,3,16,19,39.918648,-75.244338,710b31a9-0e72-4c48-8cbb-85dc2cfc5fa8
-75.246245,39.917304,90,11304W,Elmwood,11,Westbound,40,304,WOOISLSW,Woodland Av & Island Av,Trolley,Yes,185,WOOISL,No,APC (UTA),,94,142,236,18,52,70,12,28,40,39.917304,-75.246245,dbfb3a35-2073-4134-ad1c-824df4be0b3f
-75.248915,39.916451,91,1120761W,Elmwood,11,Westbound,41,20761,MAIFROWE,Main St & Front St,Trolley,No,0,,No,APC (UTA),,14,61,75,4,21,25,3,23,26,39.916451,-75.248915,5fdf0406-3047-4f19-ba55-0d3fa275cd00
-75.250327,39.916634,92,1120762W,Elmwood,11,Westbound,42,20762,MAI2NDWE,Main St & 2nd St,Trolley,No,0,,No,APC (UTA),,10,50,60,2,22,24,2,8,10,39.916634,-75.250327,426f32b3-cd2b-4ff5-b1bc-82ce55cee0ae
-75.251534,39.916892,93,1120763W,Elmwood,11,Westbound,43,20763,MAI3RDWE,Main St & 3rd St,Trolley,No,0,,No,APC (UTA),,18,128,146,8,41,49,3,30,33,39.916892,-75.251534,ab460ea6-93b3-48df-b6ff-b2dd4704e6c3
-75.252717,39.917188,94,1120764W,Elmwood,11,Westbound,44,20764,MAI4THWE,Main St & 4th St,Trolley,No,0,,No,APC (UTA),,16,112,128,9,39,48,2,32,34,39.917188,-75.252717,9a2dc8b3-c8bc-413d-8cf6-31e031359d4c
-75.254295,39.91753,95,1120765W,Elmwood,11,Westbound,45,20765,MAI5THWE,Main St & 5th St,Trolley,No,0,,No,APC (UTA),,22,148,170,14,53,67,6,34,40,39.91753,-75.254295,7d48891b-cdf9-4dbb-85ae-dbe49fbbc5b9
-75.255481,39.917795,96,1120766W,Elmwood,11,Westbound,46,20766,MAI6THWE,Main St & 6th St,Trolley,No,0,,No,APC (UTA),,23,110,133,8,32,40,4,35,39,39.917795,-75.255481,45f57899-df87-4e8a-be87-f5746b96192d
-75.25709,39.91815,97,1120767W,Elmwood,11,Westbound,47,20767,MAISUMWE,Main St & Summit St,Trolley,No,0,,No,APC (UTA),,7,69,76,7,20,27,0,17,17,39.91815,-75.25709,88ef70d2-98a7-48bf-892e-0f9733a8e637
-75.260578,39.918282,98,1125241W,Elmwood,11,Westbound,48,25241,MAIPOWWE,Main St & Powell Av,Trolley,No,0,,No,APC (UTA),,6,97,103,4,32,36,2,24,26,39.918282,-75.260578,537876e2-6fdd-418d-9ebb-c162f1f6e092
-75.262403,39.919139,99,11305W,Elmwood,11,Westbound,49,305,DARTRA1,Darby Transportation Center Old,Trolley,Yes,186,DATE,No,APC (UTA),,0,903,903,0,334,334,0,228,228,39.919139,-75.262403,2d3d2a69-56a0-4fe5-8c2b-0b14c7a15204
-75.262403,39.919139,100,13305E,Elmwood,13,Eastbound,1,305,DARTRA1,Darby Transportation Center Old,Trolley,Yes,186,DATE,No,APC (UTA),,27,0,27,0,0,0,3,0,3,39.919139,-75.262403,8c6ff268-472b-423e-bb54-48b84a20332e
-75.260521,39.919933,101,1320768E,Elmwood,13,Eastbound,2,20768,9THRIDNE,9th St & Ridge Av,Trolley,No,0,,No,APC (UTA),,4,0,4,1,0,1,0,0,0,39.919933,-75.260521,88dbc66b-0f86-4e5a-963a-66359bf729ef
-75.258848,39.921167,102,1320770E,Elmwood,13,Eastbound,3,20770,9THSUMNE,9th St & Summit Av,Trolley,No,0,,No,APC (UTA),,9,1,10,0,0,0,0,0,0,39.921167,-75.258848,2188f2a2-833b-46ae-9bcf-4d70e396e139
-75.257482,39.922058,103,1320771E,Elmwood,13,Eastbound,4,20771,9THSUINE,9th St & Summit Av - MBFS,Trolley,No,0,,No,APC (UTA),,3,0,3,1,0,1,0,0,0,39.922058,-75.257482,a06f6f67-f12c-454c-863c-c4ad29943b5f
-75.255994,39.922566,104,1320772E,Elmwood,13,Eastbound,5,20772,9THCEDNE,9th St & Cedar Av,Trolley,No,0,,No,APC (UTA),,17,1,18,0,0,0,0,0,0,39.922566,-75.255994,4e4e3c41-23a8-4236-ab26-092fc9f7a402
-75.254279,39.923697,105,1320773E,Elmwood,13,Eastbound,6,20773,CHEALDNE,Chester Av & Alfred Av,Trolley,No,0,,No,APC (UTA),,14,1,15,2,0,2,0,0,0,39.923697,-75.254279,98d89a52-bb38-44fe-9d21-a4f10aa08130
-75.252512,39.924519,106,1320774E,Elmwood,13,Eastbound,7,20774,CHEYEANE,Chester Av & Allen Dr Yeadon Loop,Trolley,Yes,198,YELO,No,APC (UTA),,268,6,274,133,2,135,84,1,85,39.924519,-75.252512,afdf855b-beb9-4440-8072-f6071876d1d3
-75.250787,39.925094,107,1320775E,Elmwood,13,Eastbound,8,20775,CHESTENE,Chester Av & Stetser Av,Trolley,No,0,,No,APC (UTA),,20,1,21,6,0,6,2,0,2,39.925094,-75.250787,8a4f4d5a-1c07-42e6-8518-e37e03921e12
-75.249207,39.925551,108,1320776E,Elmwood,13,Eastbound,9,20776,CHEDUNNE,Chester Av & Duncan Av,Trolley,No,0,,No,APC (UTA),,46,3,49,23,1,24,5,1,6,39.925551,-75.249207,9bd7a560-3c0f-4d37-871d-54ff8f169591
-75.247441,39.926036,109,1320777E,Elmwood,13,Eastbound,10,20777,CHEYEAEA,Chester Av & Yeadon Av,Trolley,No,0,,No,APC (UTA),,2,0,2,1,0,1,0,0,0,39.926036,-75.247441,c27fae39-c5ee-486c-8fcb-fbe978233808
-75.246565,39.9263,110,1320778E,Elmwood,13,Eastbound,11,20778,CHECHUNE,Chester Av & Church Ln,Trolley,No,0,,No,APC (UTA),,193,32,225,99,8,107,51,7,58,39.9263,-75.246565,e9f3d205-c9fe-46da-9cba-73f62e629dcb
-75.244735,39.929376,111,1320779E,Elmwood,13,Eastbound,12,20779,CHE65TNO,Chester Av & 65th St,Trolley,No,0,,No,APC (UTA),,60,4,64,21,4,25,15,2,17,39.929376,-75.244735,b7e935e2-27db-4bb3-bcd3-969e7537e696
-75.243558,39.929484,112,1320780E,Elmwood,13,Eastbound,13,20780,65TCOBEA,65th St & Cobbs Creek Pkwy,Trolley,No,0,,No,APC (UTA),,6,0,6,4,0,4,1,0,1,39.929484,-75.243558,7c35480b-5cc3-41f8-9538-945b515dea30
-75.241068,39.929001,113,1320781E,Elmwood,13,Eastbound,14,20781,65TBELEA,65th St & Belmar Av,Trolley,No,0,,No,APC (UTA),,121,9,130,35,7,42,27,3,30,39.929001,-75.241068,5f9cfa83-58bb-4e19-a1a3-5c320437d733
-75.238941,39.928586,114,1320782E,Elmwood,13,Eastbound,15,20782,65TCHEEA,65th St & Chester Av,Trolley,No,0,,No,APC (UTA),,102,10,112,28,2,30,18,2,20,39.928586,-75.238941,63aa1ded-dc1d-4fd0-a962-0c9cf182c867
-75.237147,39.927866,115,1320843E,Elmwood,13,Eastbound,16,20843,65TKINSE,65th St & Kingsessing Av,Trolley,No,0,,No,APC (UTA),,190,18,208,73,11,84,55,12,67,39.927866,-75.237147,0d9325d2-04a7-4b7b-a19e-2566414a71c7
-75.235374,39.928861,116,13319E,Elmwood,13,Eastbound,17,319,KINCEMNE,Kingsessing Av & Cemetary Av,Trolley,Yes,199,MOMO,No,APC (UTA),,75,8,83,22,3,25,17,1,18,39.928861,-75.235374,cd437f57-1e04-434e-bcdc-0df3d9b5306f
-75.233839,39.929943,117,1320785E,Elmwood,13,Eastbound,18,20785,KIN62NNE,Kingsessing Av & 62nd St,Trolley,No,0,,No,APC (UTA),,16,2,18,5,1,6,6,2,8,39.929943,-75.233839,29f0cf97-efd5-4dfc-a1e3-2f562da1330d
-75.232375,39.930979,118,1320784E,Elmwood,13,Eastbound,19,20784,KIN61SNE,Kingsessing Av & 61st St,Trolley,No,0,,No,APC (UTA),,68,10,78,23,6,29,16,5,21,39.930979,-75.232375,f8a24d14-ee95-4e2b-a3ac-8ce828690d17
-75.230283,39.93245,119,1320786E,Elmwood,13,Eastbound,20,20786,KIN60TNE,Kingsessing Av & 60th St,Trolley,No,0,,No,APC (UTA),,127,21,148,61,10,71,37,5,42,39.93245,-75.230283,58e1201d-fcbe-4e69-8861-0bd72a09b7db
-75.231382,39.933651,120,1320787E,Elmwood,13,Eastbound,21,20787,60TCHENW,60th St & Chester Av,Trolley,No,0,,No,APC (UTA),,147,18,165,59,10,69,41,9,50,39.933651,-75.231382,981c07e5-50d6-4ce0-8b94-615236804fd3
-75.229933,39.934688,121,1320788E,Elmwood,13,Eastbound,22,20788,CHE59TNE,Chester Av & 59th St,Trolley,No,0,,No,APC (UTA),,73,8,81,23,4,27,14,6,20,39.934688,-75.229933,9ee17b35-6016-4ff5-b249-6d297b007dad
-75.228541,39.935629,122,13320E,Elmwood,13,Eastbound,23,320,CHE58TNE,Chester Av & 58th St,Trolley,Yes,200,58CR,No,APC (UTA),,288,95,383,122,36,158,66,21,87,39.935629,-75.228541,057cb622-f7bc-49ff-b02e-b8239635c10a
-75.227179,39.936601,123,1320791E,Elmwood,13,Eastbound,24,20791,CHE57TNE,Chester Av & 57th St,Trolley,No,0,,No,APC (UTA),,214,25,239,72,9,81,41,2,43,39.936601,-75.227179,fad34fd8-0418-44e6-9628-c5560288cd47
-75.225674,39.937652,124,1320792E,Elmwood,13,Eastbound,25,20792,CHE56TNE,Chester Av & 56th St,Trolley,No,0,,No,APC (UTA),,211,52,263,72,16,88,39,3,42,39.937652,-75.225674,2242e36f-6588-4b48-9c35-391a2556a17f
-75.224304,39.938622,125,1320793E,Elmwood,13,Eastbound,26,20793,CHE55TNE,Chester Av & 55th St,Trolley,No,0,,No,APC (UTA),,175,61,236,63,21,84,36,13,49,39.938622,-75.224304,c54c7895-7490-425b-8eea-98ac945f5886
-75.22293,39.93958,126,1320794E,Elmwood,13,Eastbound,27,20794,CHE54TNE,Chester Av & 54th St,Trolley,No,0,,No,APC (UTA),,290,181,471,97,67,164,83,50,133,39.93958,-75.22293,da14c717-d679-4469-98fe-380bcb2bbc7f
-75.221553,39.940541,127,1320795E,Elmwood,13,Eastbound,28,20795,CHE53RNE,Chester Av & 53rd St,Trolley,No,0,,No,APC (UTA),,90,18,108,34,7,41,17,11,28,39.940541,-75.221553,1d3ce77c-762d-49af-92e0-b5347307b0b2
-75.220192,39.941497,128,1320796E,Elmwood,13,Eastbound,29,20796,CHE52NNE,Chester Av & 52nd St,Trolley,No,0,,No,APC (UTA),,201,48,249,79,18,97,42,14,56,39.941497,-75.220192,b42fa294-12fb-47ed-9f52-fb90c127719f
-75.219057,39.9423,129,1320797E,Elmwood,13,Eastbound,30,20797,CHE51SNE,Chester Av & 51st St,Trolley,No,0,,No,APC (UTA),,161,47,208,58,10,68,35,11,46,39.9423,-75.219057,0e15b5ae-2a0b-4b5e-8399-e0fe65caaa50
-75.216599,39.944053,130,13321E,Elmwood,13,Eastbound,31,321,CHE49TNE,Chester Av & 49th St,Trolley,Yes,201,49CR,No,APC (UTA),,145,116,261,58,35,93,44,18,62,39.944053,-75.216599,d012eb9f-d9b1-459f-a44c-0ab54dccfd27
-75.215307,39.944959,131,1320789E,Elmwood,13,Eastbound,32,20789,CHE48TNE,Chester Av & 48th St,Trolley,No,0,,No,APC (UTA),,87,10,97,36,4,40,18,2,20,39.944959,-75.215307,71ce7c08-5e53-4ee3-a274-219f1b0081a4
-75.213973,39.945894,132,1320790E,Elmwood,13,Eastbound,33,20790,CHE47TNE,Chester Av & 47th St,Trolley,No,0,,No,APC (UTA),,141,46,187,58,17,75,41,10,51,39.945894,-75.213973,a6c72626-a829-4c60-9503-295aeecde64b
-75.212714,39.946775,133,1320799E,Elmwood,13,Eastbound,34,20799,CHE46TNE,Chester Av & 46th St,Trolley,No,0,,No,APC (UTA),,95,11,106,42,4,46,21,4,25,39.946775,-75.212714,49cda430-1817-434b-8369-0a8338e7dac5
-75.211427,39.947668,134,1320800E,Elmwood,13,Eastbound,35,20800,CHE45TNE,Chester Av & 45th St,Trolley,No,0,,No,APC (UTA),,59,14,73,17,9,26,7,3,10,39.947668,-75.211427,bbf26f24-6f8c-4ede-9121-3d8f86f8f275
-75.209143,39.948319,135,1320801E,Elmwood,13,Eastbound,36,20801,CHE43REA,Chester Av & 43rd St,Trolley,No,0,,No,APC (UTA),,68,26,94,29,12,41,16,3,19,39.948319,-75.209143,86afd83b-c386-4f10-b7d6-33172b5f4f0d
-75.207189,39.948393,136,1320802E,Elmwood,13,Eastbound,37,20802,CHE42NEA,Chester Av & 42nd St,Trolley,No,0,,No,APC (UTA),,45,16,61,23,7,30,4,2,6,39.948393,-75.207189,f4e06d64-042f-4ba5-8fea-77c970062018
-75.205758,39.948438,137,1320803E,Elmwood,13,Eastbound,38,20803,CHE41TEA,Chester Av & 41st St,Trolley,No,0,,No,APC (UTA),,25,8,33,3,6,9,3,0,3,39.948438,-75.205758,30ef7dbd-d226-44e9-ae82-42ebfb3c750e
-75.204963,39.948503,138,1320925E,Elmwood,13,Eastbound,39,20925,WOOCHENE,Woodland Av & Chester Av,Trolley,No,0,,No,APC (UTA),,6,3,9,1,0,1,0,0,0,39.948503,-75.204963,b059fcfb-65cd-49f4-9c0b-30aff35008a2
-75.203332,39.949409,139,1320804E,Elmwood,13,Eastbound,40,20804,40TPORNE,40th St Trolley Portal,Trolley,Yes,188,40PO,No,APC (UTA),,608,267,875,223,73,296,90,40,130,39.949409,-75.203332,25af30dd-1579-4d9f-9d9a-6ece1c53b320
-75.202021,39.957259,140,1321248E,Elmwood,13,Eastbound,41,21248,40TMARSO,40th St & Market St,Trolley,Yes,189,40MK,No,APC (UTA),,,,,,,,0,0,0,39.957259,-75.202021,5b18ab3b-78e4-4dc8-882b-30cc7f2c3fc4
-75.197247,39.950914,141,1320731E,Elmwood,13,Eastbound,42,20731,SP37NEU,37th St Trolley Station,Trolley,No,0,,No,APC (UTA),,234,143,377,31,24,55,13,24,37,39.950914,-75.197247,c08ad3fe-9457-4d3d-be00-5fd14d2b480b
-75.194505,39.953848,142,1320732E,Elmwood,13,Eastbound,43,20732,36SANOU,36th St Trolley Station,Trolley,No,0,,No,APC (UTA),,243,105,348,29,27,56,19,10,29,39.953848,-75.194505,ee3bcfe9-830f-4ca1-b860-87299481e2b9
-75.189707,39.954787,143,1320642E,Elmwood,13,Eastbound,44,20642,33MAEAU,33rd St Trolley Station,Trolley,No,0,,No,APC (UTA),,152,103,255,30,18,48,10,14,24,39.954787,-75.189707,15f86a18-551c-4642-9dcb-406b304e5ef1
-75.183571,39.95474,144,1320643E,Elmwood,13,Eastbound,45,20643,MA30EAU,30th St Trolley Station,Trolley,Yes,0,30MK,No,APC (UTA),,119,305,424,25,65,90,17,28,45,39.95474,-75.183571,dd372c9a-e67e-4da7-9817-a90d11565d4d
-75.176791,39.953917,145,1320645E,Elmwood,13,Eastbound,46,20645,MA22EAU,22nd St Trolley Station,Trolley,No,0,,No,APC (UTA),,212,732,944,89,251,340,31,141,172,39.953917,-75.176791,50ed502d-7176-425d-b40e-c109032554df
-75.171679,39.953268,146,1320646E,Elmwood,13,Eastbound,47,20646,MA19EAU,19th St Trolley Station,Trolley,Yes,0,19MK,No,APC (UTA),,208,582,790,58,241,299,28,96,124,39.953268,-75.171679,f0977be3-35f4-4f1b-8f24-ff0b6e65379d
-75.165445,39.952484,147,1331140E,Elmwood,13,Eastbound,48,31140,MA15EAU,15th St Trolley Station,Trolley,No,0,,No,APC (UTA),,397,1962,2359,123,748,871,43,396,439,39.952484,-75.165445,4063d32c-6d8b-4354-9bac-e94f67f5fde1
-75.162559,39.952532,148,13283E,Elmwood,13,Eastbound,49,283,JUNSTANO,13th St Trolley Station,Trolley,Yes,183,JUST,No,APC (UTA),,0,1242,1242,0,392,392,0,202,202,39.952532,-75.162559,9c71e653-b7c8-454c-b184-5675dc824334
-75.162559,39.952532,149,13283W,Elmwood,13,Westbound,1,283,JUNSTANO,13th St Trolley Station,Trolley,Yes,183,JUST,No,APC (UTA),,3470,0,3470,1187,0,1187,720,0,720,39.952532,-75.162559,ce00057f-e26a-4f45-a210-cedf4f2d7841
-75.165401,39.952698,150,1320659W,Elmwood,13,Westbound,2,20659,MA15WEU,15th St Trolley Station,Trolley,No,0,,No,APC (UTA),,869,556,1425,290,122,412,224,67,291,39.952698,-75.165401,3e46249b-76f3-41d9-a682-89f61f35b769
-75.171649710999986,39.953478565000069,151,1320660W,Elmwood,13,Westbound,3,20660,MA19WEU,19th St Trolley Station,Trolley,No,0,,No,APC (UTA),,195,131,326,79,25,104,45,9,54,39.95347857,-75.17164971,dbd3d9c9-dd75-4b23-bdcf-737693900778
-75.176759223999966,39.954131210000071,152,1320661W,Elmwood,13,Westbound,4,20661,MA22WEU,22nd St Trolley Station,Trolley,No,0,,No,APC (UTA),,127,237,364,43,65,108,18,31,49,39.95413121,-75.17675922,c1a165c3-93d0-4e21-b558-4f385a957fd0
-75.183540157999971,39.954969249000044,153,1320662W,Elmwood,13,Westbound,5,20662,MA30WEU,30th St Trolley Station,Trolley,No,0,,No,APC (UTA),,116,281,397,20,33,53,12,20,32,39.95496925,-75.18354016,86935b55-762e-43b6-ab78-ab0fc6f5def0
-75.189686,39.954908,154,1320658W,Elmwood,13,Westbound,6,20658,33MAWEU,33rd St Trolley Station,Trolley,No,0,,No,APC (UTA),,116,201,317,23,21,44,8,14,22,39.954908,-75.189686,72f4edab-e828-4400-8510-6a1c93c8642e
-75.194664,39.953868,155,1320733W,Elmwood,13,Westbound,7,20733,36SASOU,36th St Trolley Station,Trolley,No,0,,No,APC (UTA),,98,161,259,8,24,32,7,10,17,39.953868,-75.194664,4e263834-bd34-4b07-9b4b-bb84437312a4
-75.197306,39.951048,156,1320734W,Elmwood,13,Westbound,8,20734,SP37SWU,37th St Trolley Station,Trolley,No,0,,No,APC (UTA),,90,46,136,28,21,49,15,7,22,39.951048,-75.197306,373a0700-c3a1-433b-9774-b171e2eb58bc
-75.203641,39.949289,157,13301W,Elmwood,13,Westbound,9,301,40TPORSW,40th St Trolley Portal,Trolley,Yes,188,40PO,No,APC (UTA),,161,235,396,71,94,165,23,27,50,39.949289,-75.203641,2b5626ea-7f6c-49ec-af2e-ce8a19241939
-75.202021,39.957259,158,1321248W,Elmwood,13,Westbound,10,21248,40TMARSO,40th St & Market St,Trolley,Yes,189,40MK,No,APC (UTA),,,,,,,,,,,39.957259,-75.202021,2895578a-c737-4eb4-8586-2f0c85a238f7
-75.204987,39.948604,159,1320805W,Elmwood,13,Westbound,11,20805,WOOCHESW,Woodland Av & Chester Av,Trolley,No,0,,No,APC (UTA),,10,34,44,5,6,11,7,3,10,39.948604,-75.204987,c2fd1a26-ad93-4f63-be5d-3d0f77c08afd
-75.20692,39.948548,160,1320807W,Elmwood,13,Westbound,12,20807,CHE42NWE,Chester Av & 42nd St,Trolley,No,0,,No,APC (UTA),,17,74,91,6,34,40,7,13,20,39.948548,-75.20692,0c8a8eae-3e4a-4aaa-a1d3-29c8317f9d7b
-75.20894,39.948486,161,1320808W,Elmwood,13,Westbound,13,20808,CHE43RWE,Chester Av & 43rd St,Trolley,No,0,,No,APC (UTA),,23,95,118,8,32,40,6,12,18,39.948486,-75.20894,7a7e7021-352f-4d37-a101-32d5b7343bfb
-75.211365,39.94792,162,1320809W,Elmwood,13,Westbound,14,20809,CHE45TSW,Chester Av & 45th St,Trolley,No,0,,No,APC (UTA),,13,78,91,7,44,51,2,21,23,39.94792,-75.211365,a5920389-3245-4054-8177-833d36a4a8b3
-75.212658,39.947006,163,1320810W,Elmwood,13,Westbound,15,20810,CHE46TSW,Chester Av & 46th St,Trolley,No,0,,No,APC (UTA),,11,96,107,4,39,43,5,22,27,39.947006,-75.212658,718528e9-2fbc-41e7-b33a-b925521d53cc
-75.213949,39.946096,164,1320811W,Elmwood,13,Westbound,16,20811,CHE47TSW,Chester Av & 47th St,Trolley,No,0,,No,APC (UTA),,33,178,211,11,58,69,7,45,52,39.946096,-75.213949,638707e4-3fa1-4cec-8a7f-15fa90957f89
-75.215263,39.945177,165,1320812W,Elmwood,13,Westbound,17,20812,CHE48TSW,Chester Av & 48th St,Trolley,No,0,,No,APC (UTA),,15,95,110,6,25,31,1,22,23,39.945177,-75.215263,87c50668-d2bb-49f7-9e5b-7cf84f21fc00
-75.216519,39.944299,166,13322W,Elmwood,13,Westbound,18,322,CHE49TSW,Chester Av & 49th St,Trolley,Yes,201,49CR,No,APC (UTA),,97,164,261,25,65,90,20,28,48,39.944299,-75.216519,c4b08bfa-c288-4474-9fc9-9840adbf0e2a
-75.219002,39.942538,167,1320814W,Elmwood,13,Westbound,19,20814,CHE51SSW,Chester Av & 51st St,Trolley,No,0,,No,APC (UTA),,37,144,181,18,64,82,11,41,52,39.942538,-75.219002,43f428b4-6989-4dd5-8d44-a8c9f3fc8ab4
-75.220123,39.941751,168,1320815W,Elmwood,13,Westbound,20,20815,CHE52NSW,Chester Av & 52nd St,Trolley,No,0,,No,APC (UTA),,39,197,236,19,87,106,11,65,76,39.941751,-75.220123,fd2fe678-2663-4719-a9e1-9a406c74e2cf
-75.221514,39.940781,169,1320816W,Elmwood,13,Westbound,21,20816,CHE53RSW,Chester Av & 53rd St,Trolley,No,0,,No,APC (UTA),,19,116,135,6,34,40,8,30,38,39.940781,-75.221514,e32a9279-af05-41ba-8d8e-54b561dc81fd
-75.222902,39.939798,170,1320817W,Elmwood,13,Westbound,22,20817,CHE54TSW,Chester Av & 54th St,Trolley,No,0,,No,APC (UTA),,146,316,462,53,136,189,30,95,125,39.939798,-75.222902,c09e677e-6030-4e32-b493-c8dcd4ccc9a8
-75.224271,39.938839,171,1320818W,Elmwood,13,Westbound,23,20818,CHE55TSW,Chester Av & 55th St,Trolley,No,0,,No,APC (UTA),,52,173,225,20,78,98,11,44,55,39.938839,-75.224271,e569ec44-7bef-4614-89c2-5fc45c7db101
-75.225624,39.937885,172,1320819W,Elmwood,13,Westbound,24,20819,CHE56TSW,Chester Av & 56th St,Trolley,No,0,,No,APC (UTA),,44,227,271,20,79,99,7,60,67,39.937885,-75.225624,0ff254d8-5e4a-43b8-9d50-f750833bddcb
-75.227139,39.936825,173,1320820W,Elmwood,13,Westbound,25,20820,CHE57TSW,Chester Av & 57th St,Trolley,No,0,,No,APC (UTA),,26,204,230,8,77,85,7,47,54,39.936825,-75.227139,19a7c0dc-2468-4f69-8cc0-42b1c1d17245
-75.228543,39.935845,174,13323W,Elmwood,13,Westbound,26,323,CHE58TSW,Chester Av & 58th St,Trolley,Yes,200,58CR,No,APC (UTA),,87,266,353,57,106,163,21,62,83,39.935845,-75.228543,878a2640-7af4-40ce-a604-2cb1fde748cf
-75.229848,39.934918,175,1320821W,Elmwood,13,Westbound,27,20821,CHE59TSW,Chester Av & 59th St,Trolley,No,0,,No,APC (UTA),,12,85,97,4,28,32,5,29,34,39.934918,-75.229848,d519a170-1636-498e-9cdf-5c4ccf8d6a7b
-75.231488,39.93376,176,1320822W,Elmwood,13,Westbound,28,20822,60TCHESW,Chester Av & 60th St,Trolley,No,0,,No,APC (UTA),,17,170,187,6,62,68,6,62,68,39.93376,-75.231488,6689df4e-b55d-4113-8e1e-4beacbfb706e
-75.230361,39.932617,177,1320823W,Elmwood,13,Westbound,29,20823,60TKINSE,60th St & Kingsessing Av,Trolley,No,0,,No,APC (UTA),,15,156,171,10,68,78,6,52,58,39.932617,-75.230361,d2d1e3f4-f8a8-42de-bc59-300c53e38177
-75.232296,39.931227,178,1320824W,Elmwood,13,Westbound,30,20824,KIN61TSW,Kingsessing Av & 61st St,Trolley,No,0,,No,APC (UTA),,9,96,105,4,35,39,3,12,15,39.931227,-75.232296,5d42bd3f-3ba9-404d-a4f1-c1f4a0c7885b
-75.233832,39.930155,179,1320825W,Elmwood,13,Westbound,31,20825,KIN62NSW,Kingsessing Av & 62nd St,Trolley,No,0,,No,APC (UTA),,2,10,12,3,6,9,0,5,5,39.930155,-75.233832,340e5d26-1b77-440c-83d7-3f73d0838211
-75.235413,39.929069,180,13324W,Elmwood,13,Westbound,32,324,KINCEMSW,Kingsessing Av & Cemetery Av,Trolley,Yes,199,MOMO,No,APC (UTA),,19,119,138,6,29,35,5,24,29,39.929069,-75.235413,980a84df-a219-4758-b84e-4f5a8b0ea813
-75.237025,39.927954,181,1320826W,Elmwood,13,Westbound,33,20826,65TKINSW,Kingsessing Av & 65th St,Trolley,No,0,,No,APC (UTA),,12,210,222,3,102,105,5,72,77,39.927954,-75.237025,2506f77e-eb0a-4e7d-acc3-e885f0d8080b
-75.238127,39.928883,182,1320827W,Elmwood,13,Westbound,34,20827,65TCHENW,65th St & Chester St,Trolley,No,0,,No,APC (UTA),,7,110,117,1,39,40,2,34,36,39.928883,-75.238127,6db8fcb4-f515-4511-997b-a007c08ea195
-75.24091,39.929085,183,1331218W,Elmwood,13,Westbound,35,31218,65TBELWE,65th St & Belmar St,Trolley,No,0,,No,APC (UTA),,6,128,134,7,45,52,1,26,27,39.929085,-75.24091,bdd17954-4f80-4864-ac8f-04ec117968b1
-75.241712,39.929233,184,1320828W,Elmwood,13,Westbound,36,20828,65TWINWE,65th St & Windsor St,Trolley,No,0,,No,APC (UTA),,4,61,65,2,21,23,0,17,17,39.929233,-75.241712,b70d9763-345f-4d9c-a958-69769eda34f0
-75.243133,39.929535,185,1320829W,Elmwood,13,Westbound,37,20829,65TCOBWE,65th St & Cobbs Creek Pkwy,Trolley,No,0,,No,APC (UTA),,0,3,3,1,2,3,0,0,0,39.929535,-75.243133,db55efde-d9a5-4550-815e-a8a1501e0dba
-75.244689,39.92958,186,1321209W,Elmwood,13,Westbound,38,21209,65TCHSSW,Chester Av & 65th St - FS,Trolley,No,0,,No,APC (UTA),,9,79,88,2,26,28,2,23,25,39.92958,-75.244689,f8517d63-89d1-4753-ab9e-88e25fe59009
-75.245902,39.926645,187,1320831W,Elmwood,13,Westbound,39,20831,CHECHUSW,Chester Av & Church Ln,Trolley,No,0,,No,APC (UTA),,16,166,182,3,69,72,2,42,44,39.926645,-75.245902,300a8922-702f-4b68-9b31-3c9381146ee6
-75.247355,39.926213,188,1330865W,Elmwood,13,Westbound,40,30865,CHEYEDSW,Chester Av & Yeadon Av,Trolley,No,0,,No,APC (UTA),,3,44,47,1,12,13,0,13,13,39.926213,-75.247355,f986a8fc-90b8-4591-a13e-d2ff63dc367f
-75.249009,39.925739,189,1320833W,Elmwood,13,Westbound,41,20833,CHEDUNSW,Chester Av & Duncan Av,Trolley,No,0,,No,APC (UTA),,4,79,83,1,22,23,0,10,10,39.925739,-75.249009,3c0bc4bf-4448-47c6-8b66-ce09fcbc18a8
-75.250699,39.925245,190,1320834W,Elmwood,13,Westbound,42,20834,CHESTESW,Chester Av & Stetser Av,Trolley,No,0,,No,APC (UTA),,2,29,31,2,12,14,0,5,5,39.925245,-75.250699,2f527826-a6ba-4428-9a22-1c2e5272e659
-75.252447,39.924685,191,13325W,Elmwood,13,Westbound,43,325,CHECALSW,Chester Av & Allen Dr Yeadon Loop,Trolley,Yes,198,YELO,No,APC (UTA),,6,55,61,0,21,21,0,15,15,39.924685,-75.252447,b4d91a5b-89fe-49a9-9674-4c4a6b0b2a68
-75.254161,39.923875,192,1320835W,Elmwood,13,Westbound,44,20835,CHEALFSW,Chester Av & Alfred Av,Trolley,No,0,,No,APC (UTA),,2,22,24,0,8,8,0,4,4,39.923875,-75.254161,f28e9fa5-173a-4a1e-859b-51da7b451f7a
-75.255976,39.92301,193,1320836W,Elmwood,13,Westbound,45,20836,CHECEDSW,Chester Av & Cedar Av,Trolley,No,0,,No,APC (UTA),,2,22,24,0,3,3,0,4,4,39.92301,-75.255976,c0c71495-09a0-4618-8c0a-66c71b5acaf1
-75.25737,39.923588,194,1320838W,Elmwood,13,Westbound,46,20838,10TMULSW,10th St & Mulberry Av,Trolley,No,0,,No,APC (UTA),,2,12,14,0,3,3,0,2,2,39.923588,-75.25737,80c7e411-0651-46c7-8856-98d7aa71a2e6
-75.258455,39.923078,195,1320839W,Elmwood,13,Westbound,47,20839,10TWYCSW,10th St & Wycombe Av,Trolley,No,0,,No,APC (UTA),,0,9,9,0,1,1,0,1,1,39.923078,-75.258455,6be8b74d-4213-459b-8fe5-1a5cc6c63338
-75.259662,39.922518,196,1320840W,Elmwood,13,Westbound,48,20840,10TSUMSW,10th St & Summit St,Trolley,No,0,,No,APC (UTA),,0,6,6,0,3,3,0,1,1,39.922518,-75.259662,76ba2ff0-4829-4c70-8cfc-3e825bb3b7c3
-75.261419,39.921313,197,1320841W,Elmwood,13,Westbound,49,20841,10TRIDSW,10th St & Ridge Av,Trolley,No,0,,No,APC (UTA),,0,6,6,0,0,0,0,0,0,39.921313,-75.261419,bf6740b9-e4f2-4fa5-aae7-e7cc4cfddfd0
-75.263179,39.920066,198,1330866W,Elmwood,13,Westbound,50,30866,10TMAISW,10th St & Main St,Trolley,No,0,,No,APC (UTA),,2,35,37,0,4,4,0,1,1,39.920066,-75.263179,b38a8efe-5c7f-45ce-9a71-75348a8a12a8
-75.262403,39.919139,199,13305W,Elmwood,13,Westbound,51,305,DARTRA1,Darby Transportation Center Old,Trolley,Yes,186,DATE,No,APC (UTA),,0,4,4,0,1,1,0,1,1,39.919139,-75.262403,def69bb9-9dd1-4c97-b3b1-94a365e91f2b
-75.244598,39.970226,200,1521044E,Callowhill Rail,15,Eastbound,1,21044,GIRFELEA,Girard Av & Felton St - MBNS,Trolley,Yes,212,63GI,No,APC (UTA),,266,0,266,39,0,39,53,0,53,39.970226,-75.244598,8d711bf5-b6b3-4fa9-bb3d-c6aabd606fc6
-75.243216,39.970063,201,1531443E,Callowhill Rail,15,Eastbound,2,31443,GIR62NEA,Girard Av & 62nd St,Trolley,No,0,,No,APC (UTA),,22,0,22,0,0,0,4,0,4,39.970063,-75.243216,7a7abf31-67f7-4c0a-9394-a3c8f36538ac
-75.241221,39.969801,202,1521047E,Callowhill Rail,15,Eastbound,3,21047,GIR61SEA,Girard Av & 61st St,Trolley,No,0,,No,APC (UTA),,12,0,12,7,1,8,5,0,5,39.969801,-75.241221,de574630-a67b-4bc4-83f1-77fc5f7985ba
-75.239366,39.969897,203,1521048E,Callowhill Rail,15,Eastbound,4,21048,GIR60TEA,Girard Av & 60th St,Trolley,No,0,,No,APC (UTA),,96,8,104,27,0,27,16,1,17,39.969897,-75.239366,537814bd-c25d-4ad9-806a-31cfb528d533
-75.237523,39.970099,204,15349E,Callowhill Rail,15,Eastbound,5,349,GIR59TEA,Girard Av & 59th St,Trolley,Yes,211,59GI,No,APC (UTA),,48,4,52,15,0,15,16,0,16,39.970099,-75.237523,3c692bad-c13e-4744-90e5-719a62f0b8f5
-75.234285,39.97046,205,1521050E,Callowhill Rail,15,Eastbound,6,21050,GIR57TEA,Girard Av & 57th St,Trolley,No,0,,No,APC (UTA),,130,13,143,29,6,35,16,3,19,39.97046,-75.234285,6e9cbba9-3d52-4bd7-bc12-da080edd3e22
-75.232667,39.970636,206,1521051E,Callowhill Rail,15,Eastbound,7,21051,GIR56TEA,Girard Av & 56th St,Trolley,No,0,,No,APC (UTA),,100,17,117,14,4,18,19,1,20,39.970636,-75.232667,fad2d971-d890-4c01-91df-28455a575097
-75.228803,39.971041,207,1521053E,Callowhill Rail,15,Eastbound,8,21053,GIR54TEA,Girard Av & 54th St,Trolley,No,0,,No,APC (UTA),,68,22,90,18,2,20,12,1,13,39.971041,-75.228803,61f9723f-b8b7-49df-8a74-886f938e0ded
-75.225908,39.971357,208,1521055E,Callowhill Rail,15,Eastbound,9,21055,GIR52NEA,Girard Av & 52nd St,Trolley,No,0,,No,APC (UTA),,212,62,274,50,19,69,23,2,25,39.971357,-75.225908,2124226f-5fe9-4605-8e68-d3db2ef7d889
-75.223745,39.971845,209,1521056E,Callowhill Rail,15,Eastbound,10,21056,GIR51SEA,Girard Av & 51st St,Trolley,No,0,,No,APC (UTA),,17,5,22,3,0,3,1,1,2,39.971845,-75.223745,8a5e5667-2a1c-4734-9266-b8d5f0d58eef
-75.218521,39.972978,210,1521058E,Callowhill Rail,15,Eastbound,11,21058,GIRLANEA,Girard Av & Lancaster Av,Trolley,No,0,,No,APC (UTA),,28,30,58,12,6,18,8,4,12,39.972978,-75.218521,bc048a38-4605-49d2-90ed-eb47045879cb
-75.216431,39.972725,211,1530605E,Callowhill Rail,15,Eastbound,12,30605,GIRMEREA,Girard Av & Merion Av,Trolley,No,0,,No,APC (UTA),,58,24,82,5,0,5,7,6,13,39.972725,-75.216431,3719b835-7e59-4329-849d-05910d5eb1af
-75.211964,39.973208,212,1521060E,Callowhill Rail,15,Eastbound,13,21060,GIRBELEA,Girard Av & Belmont Av - FS,Trolley,No,0,,No,APC (UTA),,70,46,116,19,6,25,8,9,17,39.973208,-75.211964,cd539588-3dcd-43f2-937b-f3e1fd02035c
-75.208975,39.973542,213,1521061E,Callowhill Rail,15,Eastbound,14,21061,GIR42NEA,Girard Av & 42nd St,Trolley,No,0,,No,APC (UTA),,50,16,66,8,4,12,11,4,15,39.973542,-75.208975,1cbcbc94-0fdf-4696-b3b1-e696b83e1ee0
-75.206528,39.973823,214,1521062E,Callowhill Rail,15,Eastbound,15,21062,GIR41SEA,Girard Av & 41st St,Trolley,Yes,0,4PSI,No,APC (UTA),,110,28,138,8,4,12,12,2,14,39.973823,-75.206528,b91ffa7f-f438-48dd-94f0-f131304bd40e
-75.204531,39.974043,215,15350E,Callowhill Rail,15,Eastbound,16,350,GIR40TEA,Girard Av & 40th St,Trolley,Yes,210,40GI,No,APC (UTA),,76,50,126,20,11,31,10,4,14,39.974043,-75.204531,adcc8fe1-8e27-472c-985c-f60f0bbc64f1
-75.201802,39.974297,216,1521063E,Callowhill Rail,15,Eastbound,17,21063,GIR39TEA,Girard Av & 39th St,Trolley,No,0,,No,APC (UTA),,32,23,55,4,16,20,8,1,9,39.974297,-75.201802,e66f1583-64a2-4166-a192-11dce89e463d
-75.196733,39.974841,217,1530292E,Callowhill Rail,15,Eastbound,18,30292,GIR34TEA,Girard Av & 34th St - MBNS,Trolley,No,0,,No,APC (UTA),,36,10,46,11,2,13,5,1,6,39.974841,-75.196733,a3fdb102-94df-478e-902b-7efecfafe7f9
-75.18675,39.974938,218,1521067E,Callowhill Rail,15,Eastbound,19,21067,GIR31SEA,Girard Av & 31st St,Trolley,No,0,,No,APC (UTA),,17,44,61,12,10,22,5,8,13,39.974938,-75.18675,4e03089d-dfb3-4afe-9b87-b4012cfe014a
-75.183622,39.974486,219,1521068E,Callowhill Rail,15,Eastbound,20,21068,GIR29TEA,Girard Av & 29th St,Trolley,No,0,,No,APC (UTA),,97,132,229,20,28,48,22,25,47,39.974486,-75.183622,f41fc3cf-90c0-4c72-bcbf-8e6795416003
-75.181969,39.974286,220,1521069E,Callowhill Rail,15,Eastbound,21,21069,GIR28TEA,Girard Av & 28th St,Trolley,No,0,,No,APC (UTA),,32,18,50,5,2,7,4,3,7,39.974286,-75.181969,7cb81186-a660-480d-8f3a-6a98a845903f
-75.180504,39.974113,221,1521070E,Callowhill Rail,15,Eastbound,22,21070,GIR27TEA,Girard Av & 27th St,Trolley,No,0,,No,APC (UTA),,34,8,42,8,6,14,4,2,6,39.974113,-75.180504,920875a6-7da8-43fd-9acc-b7002d22d0b4
-75.178946,39.973896,222,1521071E,Callowhill Rail,15,Eastbound,23,21071,GIR26TEA,Girard Av & 26th St,Trolley,No,0,,No,APC (UTA),,60,48,108,6,14,20,10,10,20,39.973896,-75.178946,52752f8b-7de7-4c01-ba3d-b55add43f2b1
-75.179198,39.972701,223,1521072E,Callowhill Rail,15,Eastbound,24,21072,26TPOPSO,26th St & Poplar St,Trolley,No,0,,No,APC (UTA),,20,4,24,8,0,8,1,2,3,39.972701,-75.179198,c2fb665f-850a-48bd-b14c-28ea7b103bec
-75.178171,39.97244,224,1521073E,Callowhill Rail,15,Eastbound,25,21073,POPSTIEA,Poplar St & Stillman St,Trolley,No,0,,No,APC (UTA),,19,4,23,3,2,5,0,1,1,39.97244,-75.178171,1f74b5fa-5162-4ff3-a21b-22a3edd024ad
-75.175384,39.97239,225,1521075E,Callowhill Rail,15,Eastbound,26,21075,COL24TEA,College Av & 24th St - FS,Trolley,No,0,,No,APC (UTA),,18,2,20,1,0,1,2,0,2,39.97239,-75.175384,9886468f-f2a4-4778-a4f1-5a5bccbcd451
-75.170421,39.972817,226,1521078E,Callowhill Rail,15,Eastbound,27,21078,GIRCOREA,Girard Av & Corinthian Av,Trolley,No,0,,No,APC (UTA),,20,16,36,4,2,6,0,2,2,39.972817,-75.170421,1a1cdba6-f979-4c4b-8f43-5a12331ee0ec
-75.169087,39.972636,227,1521079E,Callowhill Rail,15,Eastbound,28,21079,GIR20TEA,Girard Av & 20th St,Trolley,Yes,0,20GI,No,APC (UTA),,13,42,55,1,12,13,1,10,11,39.972636,-75.169087,5125c473-67d1-4104-99f6-f52d9ced2798
-75.16754,39.972427,228,1521080E,Callowhill Rail,15,Eastbound,29,21080,GIR19TEA,Girard Av & 19th St,Trolley,No,0,,No,APC (UTA),,68,40,108,10,6,16,9,10,19,39.972427,-75.16754,303b9e57-4098-4177-b777-1f383c93d0eb
-75.166572,39.972309,229,1521081E,Callowhill Rail,15,Eastbound,30,21081,GIRRIDEA,Girard Av & Ridge Av,Trolley,No,0,,No,APC (UTA),,30,9,39,6,2,8,6,3,9,39.972309,-75.166572,a6a9f46b-8b87-4801-8d37-f55fce553284
-75.164352,39.972028,230,1521082E,Callowhill Rail,15,Eastbound,31,21082,GIR17TEA,Girard Av & 17th St,Trolley,No,0,,No,APC (UTA),,28,10,38,6,0,6,4,0,4,39.972028,-75.164352,c2fbd2fe-cfea-4442-b8b5-507322df1e82
-75.162806,39.971828,231,1521083E,Callowhill Rail,15,Eastbound,32,21083,GIR16TEA,Girard Av & 16th St,Trolley,No,0,,No,APC (UTA),,18,18,36,4,4,8,3,4,7,39.971828,-75.162806,559282c0-d10e-414c-bbc0-2767b509ea18
-75.159594,39.971428,232,15352E,Callowhill Rail,15,Eastbound,33,352,GIRBROEA,Girard Av & Broad St,Trolley,Yes,95,BRGI,No,APC (UTA),,305,480,785,57,88,145,34,49,83,39.971428,-75.159594,548759cf-55b7-40f2-b2e0-bb41ec4917c2
-75.155816,39.970965,233,1521086E,Callowhill Rail,15,Eastbound,34,21086,GIR12TEA,Girard Av & 12th St,Trolley,No,0,,No,APC (UTA),,38,18,56,2,4,6,11,3,14,39.970965,-75.155816,be58e685-8e60-491c-a5c8-0b3028b72a48
-75.154222,39.970756,234,1521087E,Callowhill Rail,15,Eastbound,35,21087,GIR11TEA,Girard Av & 11th St,Trolley,No,0,,No,APC (UTA),,35,58,93,10,8,18,3,13,16,39.970756,-75.154222,6a11a09c-6ab8-4c38-90fc-014b7357feaf
-75.150042,39.97047,235,1521090E,Callowhill Rail,15,Eastbound,36,21090,GIR8THEA,Girard Av & 8th St,Trolley,No,0,,No,APC (UTA),,66,86,152,9,7,16,10,18,28,39.97047,-75.150042,8cea791c-931e-4523-bfb2-a3db7adf6fc1
-75.148211,39.970386,236,1521091E,Callowhill Rail,15,Eastbound,37,21091,GIR7THEA,Girard Av & 7th St,Trolley,No,0,,No,APC (UTA),,72,81,153,9,12,21,11,9,20,39.970386,-75.148211,f53b209a-1ec0-4a2a-af93-50863a7088ae
-75.145094,39.970129,237,1521093E,Callowhill Rail,15,Eastbound,38,21093,GIR5THEA,Girard Av & 5th St,Trolley,No,0,,No,APC (UTA),,36,62,98,8,12,20,4,7,11,39.970129,-75.145094,df828c19-a816-491b-aea6-31e776b7df96
-75.141599,39.969711,238,1521095E,Callowhill Rail,15,Eastbound,39,21095,GIR3RDEA,Girard Av & 3rd St,Trolley,No,0,,No,APC (UTA),,14,79,93,2,4,6,4,2,6,39.969711,-75.141599,d694d7ec-63b1-4e02-a901-84d949cb1e7b
-75.139805,39.969439,239,1521096E,Callowhill Rail,15,Eastbound,40,21096,GIR2NDEA,Girard Av & 2nd St,Trolley,Yes,0,2NGI,No,APC (UTA),,10,54,64,2,8,10,0,17,17,39.969439,-75.139805,a3f8383c-aa7d-430b-be3d-1cdd182216bd
-75.136358,39.968851,240,1520978E,Callowhill Rail,15,Eastbound,41,20978,GIRFROEA,Girard Av & Front St,Trolley,Yes,209,FRGI,No,APC (UTA),,42,478,520,8,62,70,6,66,72,39.968851,-75.136358,b58f4f6e-d185-4eec-a774-4ac0b9bd75b7
-75.134556,39.968571,241,1531540E,Callowhill Rail,15,Eastbound,42,31540,FRAGI2SO,Frankford Av & Girard Av - FS,Trolley,No,0,,No,APC (UTA),,0,7,7,1,3,4,0,2,2,39.968571,-75.134556,5ad0cee8-1610-43cc-bee3-402b4720a31b
-75.134515,39.966148,242,1524038E,Callowhill Rail,15,Eastbound,43,24038,FRARICSO,Frankford Av & Richmond St,Trolley,No,0,,No,APC (UTA),,0,10,10,0,3,3,0,0,0,39.966148,-75.134515,b1e2c226-a843-4705-a2da-694c668e308f
-75.134521,39.964858,243,1524039E,Callowhill Rail,15,Eastbound,44,24039,FRADELSO,Frankford Av & Delaware Av,Trolley,Yes,0,FRDE,No,APC (UTA),,,,,,,,,,,39.964858,-75.134521,98897f68-bb35-4883-9de9-ea33d74d1de8
-75.134192,39.965028,244,1531347E,Callowhill Rail,15,Eastbound,45,31347,DELFRANO,Delaware Av & Frankford Av Loop,Trolley,Yes,2186,FRDE,No,APC (UTA),,0,364,364,0,110,110,0,82,82,39.965028,-75.134192,ae316c30-bf05-4ee9-9f8a-96aece13e7b8
-75.134196,39.968852,245,1521098E,Callowhill Rail,15,Eastbound,46,21098,GIRFRAEA,Girard Av & Frankford Av- FS,Trolley,,,,No,APC (UTA),,,,,,,,,,,39.968852,-75.134196,59c69096-90fc-47bf-af26-8205ef1658f4
-75.130597,39.970098,246,1521100E,Callowhill Rail,15,Eastbound,47,21100,GIRCOLNE,Girard Av & Columbia Av,Trolley,,,,No,APC (UTA),,,,,,,,,,,39.970098,-75.130597,6b33cb6a-b70f-4e29-a8ec-0f4dd8bc4d57
-75.128628,39.970792,247,1521101E,Callowhill Rail,15,Eastbound,48,21101,GIRPALNE,Girard Av & Palmer St,Trolley,,,,No,APC (UTA),,,,,,,,,,,39.970792,-75.128628,9958ca53-534b-4a66-bb83-bfc02a2cd686
-75.126097,39.971649,248,1521103E,Callowhill Rail,15,Eastbound,49,21103,GIRBERNE,Girard Av & Berks St,Trolley,,,,No,APC (UTA),,,,,,,,,,,39.971649,-75.126097,e643ca6e-bd68-4311-a0eb-7161172fdedd
-75.119858,39.97299,249,1521105E,Callowhill Rail,15,Eastbound,50,21105,GIRRICNE,Girard Av & Richmond St - FS,Trolley,,,,No,APC (UTA),,,,,,,,,,,39.97299,-75.119858,77bdb213-bff8-46e2-af78-6a54efa47856
-75.118245,39.974135,250,15649E,Callowhill Rail,15,Eastbound,51,649,RICCUMEA,Richmond St & Cumberland St,Trolley,,,,No,APC (UTA),,,,,,,,,,,39.974135,-75.118245,09a44232-7c97-4764-ab91-08e1aa19b0e9
-75.115676,39.975466,251,1521107E,Callowhill Rail,15,Eastbound,52,21107,RICHUNNE,Richmond St & Huntingdon St,Trolley,,,,No,APC (UTA),,,,,,,,,,,39.975466,-75.115676,a2a5aef0-b667-4dfd-ac8a-6f10f274a720
-75.113255,39.97672,252,1521108E,Callowhill Rail,15,Eastbound,53,21108,RICLEHNE,Richmond St & Lehigh Avt,Trolley,,,,No,APC (UTA),,,,,,,,,,,39.97672,-75.113255,cdb9eb66-3ddb-4844-bda8-fafed146e471
-75.110873,39.977968,253,1521109E,Callowhill Rail,15,Eastbound,54,21109,RICSOMNE,Richmond St & Somerset St,Trolley,,,,No,APC (UTA),,,,,,,,,,,39.977968,-75.110873,d9ba502d-f5c2-4a0c-88c3-224a83de4b12
-75.108993,39.978896,254,1521110E,Callowhill Rail,15,Eastbound,55,21110,RICCAMNE,Richmond St & Cambria St,Trolley,,,,No,APC (UTA),,,,,,,,,,,39.978896,-75.108993,e8eb5c09-0db7-4ceb-beea-0ca7bc509a9e
-75.107477,39.979749,255,1521111E,Callowhill Rail,15,Eastbound,56,21111,RICANNNE,Richmond St & Ann St,Trolley,,,,No,APC (UTA),,,,,,,,,,,39.979749,-75.107477,79927db0-0d29-496c-b725-23fe06043182
-75.106044,39.980495,256,1521112E,Callowhill Rail,15,Eastbound,57,21112,RICINDNE,Richmond St & Indiana Av,Trolley,,,,No,APC (UTA),,,,,,,,,,,39.980495,-75.106044,8e86a768-50c4-426a-b882-1078c017fbc3
-75.103969,39.981576,257,1521113E,Callowhill Rail,15,Eastbound,58,21113,RICCLENE,Richmond St & Clearfield St,Trolley,,,,No,APC (UTA),,,,,,,,,,,39.981576,-75.103969,5cdf0605-1a1f-41d8-8e42-f38247059843
-75.101549,39.982842,258,1521114E,Callowhill Rail,15,Eastbound,59,21114,RICALLNE,Richmond St & Allegheny Av,Trolley,,,,No,APC (UTA),,,,,,,,,,,39.982842,-75.101549,a48a8305-af6f-4a45-80ae-ae8cca45daab
-75.099516,39.984206,259,15341E,Callowhill Rail,15,Eastbound,60,341,WESLOONE,Richmond St & Westmoreland St Loop,Trolley,,,,No,APC (UTA),,,,,,,,,,,39.984206,-75.099516,273fe64a-a5cc-4ac1-95ed-3c2297dfb294
-75.099516,39.984206,260,15341W,Callowhill Rail,15,Westbound,1,341,WESLOONE,Richmond St & Westmoreland St Loop,Trolley,,,,No,APC (UTA),,,,,,,,,,,39.984206,-75.099516,b390ddb5-838d-485b-8c58-932e76111576
-75.101367,39.983098,261,1512196W,Callowhill Rail,15,Westbound,2,12196,RICALLSW,Richmond St & Allegheny Av,Trolley,,,,No,APC (UTA),,,,,,,,,,,39.983098,-75.101367,f70c0657-b813-434f-8696-8339fbd83291
-75.103833,39.981801,262,1520979W,Callowhill Rail,15,Westbound,3,20979,RICCLESW,Belgrade St & Clearfield St,Trolley,,,,No,APC (UTA),,,,,,,,,,,39.981801,-75.103833,769bee70-d0ff-4962-9f43-eacc6444c49e
-75.10596,39.9807,263,1520980W,Callowhill Rail,15,Westbound,4,20980,RICINDSW,Belgrade St & Indiana Av,Trolley,,,,No,APC (UTA),,,,,,,,,,,39.9807,-75.10596,55730ccf-7489-42fb-bd74-b86d4510c1b0
-75.107366,39.979942,264,1520981W,Callowhill Rail,15,Westbound,5,20981,RICANNSW,Belgrade St & Birch St - FS,Trolley,,,,No,APC (UTA),,,,,,,,,,,39.979942,-75.107366,65912005-96cf-4f7a-8e8a-eda0731ff6b3
-75.108921,39.979092,265,1520982W,Callowhill Rail,15,Westbound,6,20982,RICCAMSW,Belgrade St & Cambria St,Trolley,,,,No,APC (UTA),,,,,,,,,,,39.979092,-75.108921,b5ab7468-be7f-4c3e-abc0-55ad40091d3c
-75.110768,39.978159,266,1512218W,Callowhill Rail,15,Westbound,7,12218,RICSOMSW,Richmond St & Somerset St,Trolley,,,,No,APC (UTA),,,,,,,,,,,39.978159,-75.110768,f9c6da86-da2f-4559-8403-a078a2c19d5c
-75.113167,39.976886,267,1520983W,Callowhill Rail,15,Westbound,8,20983,RICLEHSW,Belgrade St & Lehigh Av,Trolley,,,,No,APC (UTA),,,,,,,,,,,39.976886,-75.113167,422244f2-b181-4b48-bda3-e2954c1d10a5
-75.115612,39.975614,268,1520984W,Callowhill Rail,15,Westbound,9,20984,RICHUNSW,Belgrade St & Huntingdon St - FS,Trolley,,,,No,APC (UTA),,,,,,,,,,,39.975614,-75.115612,bf14660f-c7e0-461b-985b-590de64dc94a
-75.119742,39.973128,269,15650W,Callowhill Rail,15,Westbound,10,650,GIRRICWE,Girard Av & Richmond St - FS,Trolley,,,,No,APC (UTA),,,,,,,,,,,39.973128,-75.119742,ae4a1f57-61bf-4724-a281-8554884dea97
-75.118047,39.97433,270,1520985W,Callowhill Rail,15,Westbound,11,20985,RICCUMSW,Richmond St & Cumberland St,Trolley,,,,No,APC (UTA),,,,,,,,,,,39.97433,-75.118047,583904a4-6b10-475c-af24-b269043df43b
-75.125755,39.97189,271,1520986W,Callowhill Rail,15,Westbound,12,20986,GIRBERWE,Girard Av & Berks St,Trolley,,,,No,APC (UTA),,,,,,,,,,,39.97189,-75.125755,dd1febc0-1698-4ba7-babd-050b3f2ed3b6
-75.128262,39.971003,272,1520988W,Callowhill Rail,15,Westbound,13,20988,GIRPALWE,Girard Av & Palmer St,Trolley,,,,No,APC (UTA),,,,,,,,,,,39.971003,-75.128262,b9334cf7-a811-4627-a0b3-71a283260a29
-75.134187,39.968941,273,1520991W,Callowhill Rail,15,Westbound,14,20991,GIRFRAWE,Girard Av & Frankford Av,Trolley,,,,No,APC (UTA),,,,,,,,,,,39.968941,-75.134187,772e4543-c780-4697-a032-edea04d5904e
-75.130273,39.970294,274,1520989W,Callowhill Rail,15,Westbound,15,20989,GIRCOLWE,Girard Av & Columbia Av,Trolley,,,,No,APC (UTA),,,,,,,,,,,39.970294,-75.130273,e5d5f076-039d-4bde-9649-d3c285061abe
-75.134192,39.965028,275,1531347W,Callowhill Rail,15,Westbound,16,31347,DELFRANO,Delaware Av & Frankford Av Loop,Trolley,Yes,2186,FRDE,No,APC (UTA),,391,0,391,138,0,138,77,0,77,39.965028,-75.134192,e6940028-8f1b-4b9a-bd29-76705836ddc8
-75.134342,39.965205,276,1531289W,Callowhill Rail,15,Westbound,17,31289,FRADELNO,Frankford Av & Delaware Av - FS,Trolley,Yes,0,FRDE,No,APC (UTA),,,,,,,,,,,39.965205,-75.134342,82bfc3c2-f95f-4ca1-af09-559820496764
-75.13434,39.966034,277,1523992W,Callowhill Rail,15,Westbound,18,23992,FRARICNO,Frankford Av & Richmond St,Trolley,No,0,,No,APC (UTA),,0,0,0,0,0,0,0,0,0,39.966034,-75.13434,6fe87084-34f9-4fe4-8f95-4e3823e8419b
-75.134355,39.968546,278,15481W,Callowhill Rail,15,Westbound,19,481,FRAGIRNO,Frankford Av & Girard Av,Trolley,No,0,,No,APC (UTA),,24,10,34,0,2,2,3,0,3,39.968546,-75.134355,01092db3-6816-43a6-951f-711183bc2fcf
-75.136075,39.968903,279,15342W,Callowhill Rail,15,Westbound,20,342,GIRFROWE,Girard Av & Front St,Trolley,No,0,,No,APC (UTA),,530,62,592,94,29,123,96,9,105,39.968903,-75.136075,374d3ad3-8044-45d4-810c-fd8d41afa48e
-75.13945,39.9695,280,1520993W,Callowhill Rail,15,Westbound,21,20993,GIR2NDWE,Girard Av & 2nd St,Trolley,Yes,0,CAG2,No,APC (UTA),,92,13,105,21,3,24,13,0,13,39.9695,-75.13945,90c36e58-7084-4cc2-b85d-e6ee8e83c4be
-75.141386,39.969799,281,1520994W,Callowhill Rail,15,Westbound,22,20994,GIR3RDWE,Girard Av & 3rd St,Trolley,Yes,0,3RGI,No,APC (UTA),,35,12,47,2,2,4,1,3,4,39.969799,-75.141386,6ee1795d-9529-471d-8b39-0b142f9d156a
-75.142968,39.96999,282,1520995W,Callowhill Rail,15,Westbound,23,20995,GIR4THWE,Girard Av & 4th St,Trolley,No,0,,No,APC (UTA),,34,16,50,1,2,3,1,12,13,39.96999,-75.142968,e09dbfa1-89dc-4b33-af00-d3c1a224d135
-75.144905,39.970218,283,1520996W,Callowhill Rail,15,Westbound,24,20996,GIR5THWE,Girard Av & 5th St,Trolley,No,0,,No,APC (UTA),,37,34,71,10,5,15,4,5,9,39.970218,-75.144905,7e1706bc-06e3-4d96-b5a5-826ca38181bd
-75.148022,39.970484,284,1520998W,Callowhill Rail,15,Westbound,25,20998,GIR7THWE,Girard Av & 7th St,Trolley,No,0,,No,APC (UTA),,66,74,140,6,10,16,9,11,20,39.970484,-75.148022,39fa1886-dd80-4db1-a855-ce6ce07f336b
-75.149853,39.970568,285,1520999W,Callowhill Rail,15,Westbound,26,20999,GIR8THWE,Girard Av & 8th St,Trolley,Yes,0,8TGI,No,APC (UTA),,97,100,197,13,8,21,25,28,53,39.970568,-75.149853,3f574170-17cc-4633-8feb-dea89d8007e2
-75.154021,39.970845,286,1521001W,Callowhill Rail,15,Westbound,27,21001,GIR11TWE,Girard Av & 11th St,Trolley,No,0,,No,APC (UTA),,50,42,92,12,8,20,9,6,15,39.970845,-75.154021,31bde90b-0ae5-410a-8ce6-c926d9ae8d3a
-75.155603,39.971045,287,1521002W,Callowhill Rail,15,Westbound,28,21002,GIR12TWE,Girard Av & 12th St,Trolley,No,0,,No,APC (UTA),,50,31,81,10,4,14,9,1,10,39.971045,-75.155603,0c616f74-1e2f-4a2c-973e-03b1e8060046
-75.159275,39.971499,288,15343W,Callowhill Rail,15,Westbound,29,343,GIRBROWE,Girard Av & Broad St,Trolley,Yes,95,BRGI,No,APC (UTA),,479,328,807,92,59,151,50,64,114,39.971499,-75.159275,3596e937-c3b0-415e-bb8a-2f5100256a22
-75.162605,39.971908,289,1521005W,Callowhill Rail,15,Westbound,30,21005,GIR16TWE,Girard Av & 16th St,Trolley,No,0,,No,APC (UTA),,28,12,40,3,3,6,4,0,4,39.971908,-75.162605,8683f5e2-ee23-4ac5-b056-aaae2d73117c
-75.164151,39.972116,290,1521006W,Callowhill Rail,15,Westbound,31,21006,GIR17TWE,Girard Av & 17th St,Trolley,No,0,,No,APC (UTA),,32,18,50,2,4,6,4,3,7,39.972116,-75.164151,cba53084-7711-4774-bfdd-d86cef07117b
-75.166217,39.97238,291,1521008W,Callowhill Rail,15,Westbound,32,21008,GIRRIDWE,Girard Av & Ridge Av,Trolley,No,0,,No,APC (UTA),,19,42,61,3,6,9,0,2,2,39.97238,-75.166217,bedae370-1944-4ca8-9148-c28ab4e51afd
-75.167339,39.972507,292,1530290W,Callowhill Rail,15,Westbound,33,30290,GIR19TWE,Girard Av & 19th St,Trolley,No,0,,No,APC (UTA),,74,46,120,16,12,28,15,11,26,39.972507,-75.167339,925b743c-284b-4f18-85ff-8a8b2a998aed
-75.168874,39.972715,293,1521009W,Callowhill Rail,15,Westbound,34,21009,GIR20TWE,Girard Av & 20th St,Trolley,No,0,,No,APC (UTA),,6,13,19,1,4,5,5,5,10,39.972715,-75.168874,881f8a93-61ae-4014-8bb0-58e84573097e
-75.17022,39.972888,294,1521010W,Callowhill Rail,15,Westbound,35,21010,GIRCORWE,Girard Av & Corinthian Av,Trolley,No,0,,No,APC (UTA),,36,32,68,4,4,8,0,2,2,39.972888,-75.17022,f383c945-5e9f-440c-8196-3f03d6254fd8
-75.175844,39.972453,295,1530791W,Callowhill Rail,15,Westbound,36,30791,GIR24HSW,Girard Av & 24th St,Trolley,No,0,,No,APC (UTA),,0,2,2,0,1,1,0,0,0,39.972453,-75.175844,3e7f3013-6568-43a9-97f2-876bd9579c8e
-75.177403,39.972492,296,1521014W,Callowhill Rail,15,Westbound,37,21014,POP25TWE,Poplar St & 25th St,Trolley,No,0,,No,APC (UTA),,2,22,24,0,1,1,0,2,2,39.972492,-75.177403,b54a6f17-f1b6-4f4e-9565-6498d0122c63
-75.178733,39.973976,297,1521016W,Callowhill Rail,15,Westbound,38,21016,GIR26TWE,Girard Av & 26th St,Trolley,No,0,,No,APC (UTA),,41,72,113,6,14,20,3,1,4,39.973976,-75.178733,5df06790-3709-469e-a406-090bbccb8b10
-75.18028,39.974202,298,1521017W,Callowhill Rail,15,Westbound,39,21017,GIR27TWE,Girard Av & 27th St,Trolley,No,0,,No,APC (UTA),,40,31,71,6,6,12,4,2,6,39.974202,-75.18028,20ebfe80-5bc0-4f64-be8c-7342f7a5402e
-75.181756,39.974375,299,1521018W,Callowhill Rail,15,Westbound,40,21018,GIR28TWE,Girard Av & 28th St,Trolley,No,0,,No,APC (UTA),,8,34,42,4,6,10,3,5,8,39.974375,-75.181756,6ffaf141-77f5-4665-a6ea-17cf9e8a245b
-75.183361,39.974574,300,1521019W,Callowhill Rail,15,Westbound,41,21019,GIR29TWE,Girard Av & 29th St,Trolley,No,0,,No,APC (UTA),,121,88,209,24,26,50,16,11,27,39.974574,-75.183361,a40eb131-b530-4ea8-a1e6-4b5e2a8d89d6
-75.186549,39.975009,301,1521021W,Callowhill Rail,15,Westbound,42,21021,GIR31SWE,Girard Av & 31st St,Trolley,No,0,,No,APC (UTA),,13,18,31,8,5,13,1,1,2,39.975009,-75.186549,b04f08e7-6189-46f3-9b88-1d2b03039b1c
-75.188002,39.975199,302,1521022W,Callowhill Rail,15,Westbound,43,21022,GIR33RWE,Girard Av & 33rd St,Trolley,No,0,,No,APC (UTA),,32,10,42,7,0,7,12,4,16,39.975199,-75.188002,6a49a29b-22bf-4bca-ad0e-001a0a44c582
-75.196472,39.975126,303,1530291W,Callowhill Rail,15,Westbound,44,30291,GIR34TWE,Girard Av & 34th St - MBFS,Trolley,No,0,,No,APC (UTA),,6,21,27,2,4,6,2,6,8,39.975126,-75.196472,54432caa-88e3-4662-8fdb-435fac8d4cd3
-75.201683,39.974511,304,1521025W,Callowhill Rail,15,Westbound,45,21025,GIR39TWE,Girard Av & 39th St,Trolley,No,0,,No,APC (UTA),,20,34,54,3,10,13,12,6,18,39.974511,-75.201683,3c8dfc8f-3241-403d-a90e-20f3474f957c
-75.204543,39.974159,305,15344W,Callowhill Rail,15,Westbound,46,344,GIR40TWE,Girard Av & 40th St - FS,Trolley,Yes,210,40GI,No,APC (UTA),,32,76,108,8,14,22,1,9,10,39.974159,-75.204543,a073aebc-daa9-4945-b979-a33e1d6386a8
-75.206268,39.973966,306,1521026W,Callowhill Rail,15,Westbound,47,21026,GIR41SWE,Girard Av & 41st St,Trolley,No,0,,No,APC (UTA),,30,54,84,2,18,20,3,8,11,39.973966,-75.206268,c49cb8be-9155-4154-b08d-2f0b959aec55
-75.208797,39.973658,307,1521027W,Callowhill Rail,15,Westbound,48,21027,GIR42NWE,Girard Av & 42nd St,Trolley,No,0,,No,APC (UTA),,16,50,66,4,16,20,6,6,12,39.973658,-75.208797,2dd1890c-28dd-4d7e-8e57-dbc740f9edde
-75.212094,39.973315,308,1521028W,Callowhill Rail,15,Westbound,49,21028,GIRBELWE,Girard Av & Belmont Av,Trolley,No,0,,No,APC (UTA),,80,123,203,2,10,12,6,15,21,39.973315,-75.212094,26fdc586-0c4d-4c80-8280-53e5c3c25939
-75.216277,39.972814,309,1530550W,Callowhill Rail,15,Westbound,50,30550,GIRMERWE,Girard Av & Merion Av,Trolley,No,0,,No,APC (UTA),,19,61,80,0,10,10,2,13,15,39.972814,-75.216277,d6650be3-6a74-420f-9bda-ab5d5e144bd9
-75.219064,39.972917,310,1521030W,Callowhill Rail,15,Westbound,51,21030,GIR49TWE,Girard Av & 49th St,Trolley,No,0,,No,APC (UTA),,14,36,50,7,7,14,5,6,11,39.972917,-75.219064,a91e5a68-c4ba-49b0-8cb1-9f22c61d0619
-75.223438,39.971987,311,1521032W,Callowhill Rail,15,Westbound,52,21032,GIR51SWE,Girard Av & 51st St,Trolley,No,0,,No,APC (UTA),,1,10,11,0,0,0,1,4,5,39.971987,-75.223438,f1058af3-5e25-44a1-b09a-5772526eb8e6
-75.22579,39.971473,312,1521033W,Callowhill Rail,15,Westbound,53,21033,GIR52NWE,Girard Av & 52nd St,Trolley,No,0,,No,APC (UTA),,60,200,260,12,53,65,5,39,44,39.971473,-75.22579,1ff71f70-f839-4f98-96b7-904e4ba9fd3b
-75.228614,39.971165,313,1521035W,Callowhill Rail,15,Westbound,54,21035,GIR54TWE,Girard Av & 54th St,Trolley,No,0,,No,APC (UTA),,10,78,88,3,26,29,1,4,5,39.971165,-75.228614,02933cd3-0bbc-4c90-9644-a19c7f198df4
-75.232477,39.970761,314,1521037W,Callowhill Rail,15,Westbound,55,21037,GIR56TWE,Girard Av & 56th St,Trolley,No,0,,No,APC (UTA),,15,148,163,0,31,31,4,21,25,39.970761,-75.232477,239e22d8-13fa-4962-aa82-3d7afbaa0473
-75.234096,39.970585,315,1521038W,Callowhill Rail,15,Westbound,56,21038,GIR57TWE,Girard Av & 57th St,Trolley,No,0,,No,APC (UTA),,10,74,84,2,13,15,1,9,10,39.970585,-75.234096,4f0c9e12-4d37-44cd-8c58-9475e0e3a14f
-75.237334,39.970224,316,15345W,Callowhill Rail,15,Westbound,57,345,GIR59TWE,Girard Av & 59th St,Trolley,Yes,211,59GI,No,APC (UTA),,14,75,89,0,20,20,3,7,10,39.970224,-75.237334,995dbb0c-9dc4-4f31-8b6d-498d3a261242
-75.238988,39.970039,317,1521040W,Callowhill Rail,15,Westbound,58,21040,GIR60TWE,Girard Av & 60th St,Trolley,No,0,,No,APC (UTA),,2,125,127,3,19,22,1,15,16,39.970039,-75.238988,aa904a63-fa9d-4c45-b1fd-dbc52fd28c52
-75.240781,39.970899,318,1521041W,Callowhill Rail,15,Westbound,59,21041,HAV61SNW,Haverford Av & 61st St,Trolley,No,0,,No,APC (UTA),,2,24,26,0,7,7,0,5,5,39.970899,-75.240781,86571026-b19b-4fa8-8902-78d0b865777c
-75.242704,39.971642,319,1521042W,Callowhill Rail,15,Westbound,60,21042,HAV62NWE,Haverford Av & 62nd St,Trolley,No,0,,No,APC (UTA),,1,17,18,0,3,3,0,3,3,39.971642,-75.242704,d76fa358-0cde-4086-bb36-20ba3b63b7bf
-75.244794,39.971904,320,1521481W,Callowhill Rail,15,Westbound,61,21481,HAV63RWE,Haverford Av & 63rd St,Trolley,No,0,,No,APC (UTA),,1,98,99,1,14,15,0,13,13,39.971904,-75.244794,0920a459-f317-41d2-93ac-69dbac49211b
-75.244598,39.970226,321,1521044W,Callowhill Rail,15,Westbound,62,21044,GIRFELEA,Girard Av & Felton St - MBNS,Trolley,Yes,212,63GI,No,APC (UTA),,0,194,194,0,32,32,0,40,40,39.970226,-75.244598,3730774a-35dc-457f-adc9-231d6f17dd88
-75.24632,39.943886,322,34599E,Elmwood,34,Eastbound,1,599,ANGLOOWE,Baltimore Av & 61st St Angora Loop,Trolley,Yes,363,61BA,No,APC (UTA),,414,1,415,164,0,164,137,0,137,39.943886,-75.24632,d5589af1-241d-460a-8fce-4ee0bffb526c
-75.244361,39.94429,323,3420859E,Elmwood,34,Eastbound,2,20859,BAL60TNE,Baltimore Av & 60th St,Trolley,No,0,,No,APC (UTA),,96,4,100,38,1,39,25,1,26,39.94429,-75.244361,5bbd8368-7781-4d6d-a1c7-6928b89079ec
-75.241826,39.94522,324,3420860E,Elmwood,34,Eastbound,3,20860,BAL59TNE,Baltimore Av & 59th St,Trolley,No,0,,No,APC (UTA),,154,4,158,61,3,64,31,0,31,39.94522,-75.241826,0fa1e202-6baf-4659-ab35-a4143d21b87d
-75.240363,39.945768,325,3420861E,Elmwood,34,Eastbound,4,20861,BAL58TNE,Baltimore Av & 58th St,Trolley,No,0,,No,APC (UTA),,304,22,326,160,14,174,118,8,126,39.945768,-75.240363,9c695ef6-b38a-49a6-9248-dd12c1f3a400
-75.237373,39.946379,326,3420862E,Elmwood,34,Eastbound,5,20862,BAL57TNE,Baltimore Av & 57th St,Trolley,No,0,,No,APC (UTA),,207,15,222,121,6,127,75,4,79,39.946379,-75.237373,227db41f-53ff-4213-b180-922994a3bfcd
-75.235596,39.946791,327,3420863E,Elmwood,34,Eastbound,6,20863,BAL56TNE,Baltimore Av & 56th St,Trolley,No,0,,No,APC (UTA),,114,5,119,55,1,56,44,1,45,39.946791,-75.235596,ec048298-af47-419f-8b97-6abc21efc458
-75.233811,39.947228,328,3420864E,Elmwood,34,Eastbound,7,20864,BAL55TNE,Baltimore Av & 55th St,Trolley,No,0,,No,APC (UTA),,186,12,198,93,6,99,60,3,63,39.947228,-75.233811,6c9238ff-31b3-4dd2-afc8-ce266fa2286a
-75.231409,39.94772,329,3420865E,Elmwood,34,Eastbound,8,20865,BAL54TEA,Baltimore Av & 54th St,Trolley,No,0,,No,APC (UTA),,102,15,117,50,8,58,36,3,39,39.94772,-75.231409,c8441a11-f352-4b8b-a446-2874ea7421e5
-75.229662,39.947718,330,3420866E,Elmwood,34,Eastbound,9,20866,BAL53REA,Baltimore Av & 53rd St,Trolley,No,0,,No,APC (UTA),,114,40,154,60,8,68,48,9,57,39.947718,-75.229662,2ec9b0c7-1ea6-44de-aa2d-1e81a7b4a4fb
-75.227541,39.947724,331,3420867E,Elmwood,34,Eastbound,10,20867,BAL52NEA,Baltimore Av & 52nd St,Trolley,No,0,,No,APC (UTA),,200,145,345,118,58,176,63,40,103,39.947724,-75.227541,93381c1f-e64f-49f8-990d-990f26480b11
-75.22544,39.947699,332,3420868E,Elmwood,34,Eastbound,11,20868,BAL51SEA,Baltimore Av & 51st St,Trolley,No,0,,No,APC (UTA),,159,22,181,78,13,91,47,8,55,39.947699,-75.22544,a53005b3-e4ac-4fc6-b4b9-8ebb472a0719
-75.223377,39.947872,333,3420869E,Elmwood,34,Eastbound,12,20869,BAL50TEA,Baltimore Av & 50th St,Trolley,No,0,,No,APC (UTA),,226,55,281,128,19,147,45,6,51,39.947872,-75.223377,766d7703-bb54-4a31-bd60-fd435ea4c4a5
-75.221353,39.948077,334,34600E,Elmwood,34,Eastbound,13,600,BAL49TEA,Baltimore Av & 49th St,Trolley,Yes,364,49BA,No,APC (UTA),,281,114,395,158,54,212,97,26,123,39.948077,-75.221353,62a3f1cb-c3cc-4573-892b-f952d128c7e3
-75.219471,39.948302,335,3420870E,Elmwood,34,Eastbound,14,20870,BAL48TEA,Baltimore Av & 48th St,Trolley,No,0,,No,APC (UTA),,290,26,316,123,9,132,74,7,81,39.948302,-75.219471,c2031f03-444b-49c1-87b9-c07cc9dfc1ed
-75.217156,39.948534,336,3420871E,Elmwood,34,Eastbound,15,20871,BAL47TEA,Baltimore Av & 47th St,Trolley,No,0,,No,APC (UTA),,222,51,273,114,18,132,72,11,83,39.948534,-75.217156,f9ca2e8b-3489-462f-afdb-2e2a8a6eb2d1
-75.215038,39.948764,337,3420872E,Elmwood,34,Eastbound,16,20872,BAL46TEA,Baltimore Av & 46th St,Trolley,No,0,,No,APC (UTA),,158,23,181,69,7,76,34,2,36,39.948764,-75.215038,d540de48-90e0-4abe-91e2-f98e41be585a
-75.212954,39.949,338,3420873E,Elmwood,34,Eastbound,17,20873,BAL45TEA,Baltimore Av & 45th St,Trolley,No,0,,No,APC (UTA),,229,29,258,91,18,109,51,3,54,39.949,-75.212954,96779def-b317-4de8-8e66-9773fa62d7e2
-75.211199,39.949186,339,3420874E,Elmwood,34,Eastbound,18,20874,BAL44TEA,Baltimore Av & 44th St,Trolley,No,0,,No,APC (UTA),,103,12,115,38,6,44,14,3,17,39.949186,-75.211199,a085bff9-2058-455f-931d-9e19b8417b89
-75.209331,39.949473,340,3420875E,Elmwood,34,Eastbound,19,20875,BAL43REA,Baltimore Av & 43rd St,Trolley,No,0,,No,APC (UTA),,172,47,219,124,16,140,55,6,61,39.949473,-75.209331,6079126a-fa52-4d71-bcab-e7539ca645ed
-75.207265,39.949736,341,3420876E,Elmwood,34,Eastbound,20,20876,BAL42NEA,Baltimore Av & 42nd St,Trolley,No,0,,No,APC (UTA),,69,23,92,34,7,41,19,9,28,39.949736,-75.207265,2d7bae9a-8f2a-4406-8359-9ac42db56378
-75.205859,39.949761,342,3420877E,Elmwood,34,Eastbound,21,20877,BAL41SEA,Baltimore Av & 41st St,Trolley,No,0,,No,APC (UTA),,21,15,36,5,7,12,4,8,12,39.949761,-75.205859,8b229f26-b8b1-4f9b-bbef-c93901820c6d
-75.203332,39.949409,343,3420804E,Elmwood,34,Eastbound,22,20804,40TPORNE,40th St Trolley Portal,Trolley,Yes,188,40PO,No,APC (UTA),,631,188,819,357,94,451,242,83,325,39.949409,-75.203332,36d95a4e-1da6-40bf-92ba-4b4637fabfe5
-75.202021,39.957259,344,3421248E,Elmwood,34,Eastbound,23,21248,40TMARSO,40th St & Market St,Trolley,Yes,189,40MK,No,APC (UTA),,,,,,,,0,0,0,39.957259,-75.202021,d1946fe9-93c9-477c-bd01-5567ad7132ac
-75.197247,39.950914,345,3420731E,Elmwood,34,Eastbound,24,20731,SP37NEU,37th St Trolley Station,Trolley,No,0,,No,APC (UTA),,216,153,369,48,40,88,31,28,59,39.950914,-75.197247,671e588c-9e4f-46e6-9d33-c567ce0dd4b2
-75.194505,39.953848,346,3420732E,Elmwood,34,Eastbound,25,20732,36SANOU,36th St Trolley Station,Trolley,No,0,,No,APC (UTA),,260,143,403,41,41,82,32,25,57,39.953848,-75.194505,3fd04efb-26d8-47d8-8769-a6c8a36b7690
-75.189707,39.954787,347,3420642E,Elmwood,34,Eastbound,26,20642,33MAEAU,33rd St Trolley Station,Trolley,No,0,,No,APC (UTA),,169,162,331,51,58,109,28,43,71,39.954787,-75.189707,d9df7603-3a84-4829-998e-1e6caca2b105
-75.183571,39.95474,348,3420643E,Elmwood,34,Eastbound,27,20643,MA30EAU,30th St Trolley Station,Trolley,Yes,0,30MK,No,APC (UTA),,115,237,352,19,92,111,12,43,55,39.95474,-75.183571,ed5420b0-c4dc-4471-8fa2-183a28b35aac
-75.176791,39.953917,349,3420645E,Elmwood,34,Eastbound,28,20645,MA22EAU,22nd St Trolley Station,Trolley,No,0,,No,APC (UTA),,258,780,1038,60,290,350,44,174,218,39.953917,-75.176791,4f00585c-1348-4dc3-adc5-15edfa46bea1
-75.171679,39.953268,350,3420646E,Elmwood,34,Eastbound,29,20646,MA19EAU,19th St Trolley Station,Trolley,Yes,0,19MK,No,APC (UTA),,212,600,812,57,287,344,44,192,236,39.953268,-75.171679,58a3d650-8502-4200-b2bc-e04a9c24e71d
-75.165445,39.952484,351,3431140E,Elmwood,34,Eastbound,30,31140,MA15EAU,15th St Trolley Station,Trolley,No,0,,No,APC (UTA),,362,2264,2626,138,912,1050,68,620,688,39.952484,-75.165445,39ed9a96-e8ae-44ca-8157-8cf53700511d
-75.162559,39.952532,352,34283E,Elmwood,34,Eastbound,31,283,JUNSTANO,13th St Trolley Station,Trolley,Yes,183,JUST,No,APC (UTA),,0,1385,1385,0,654,654,0,335,335,39.952532,-75.162559,3bd0f032-e498-4538-a1b6-64c6a89a0311
-75.162559,39.952532,353,34283W,Elmwood,34,Westbound,1,283,JUNSTANO,13th St Trolley Station,Trolley,Yes,183,JUST,No,APC (UTA),,3897,1,3898,1429,0,1429,938,0,938,39.952532,-75.162559,5f46fbdc-aa0a-4214-a122-427c68e907a7
-75.165401,39.952698,354,3420659W,Elmwood,34,Westbound,2,20659,MA15WEU,15th St Trolley Station,Trolley,No,0,,No,APC (UTA),,993,683,1676,390,171,561,299,100,399,39.952698,-75.165401,bed0d8d0-8347-433d-b315-66703ab92cad
-75.171649710999986,39.953478565000069,355,3420660W,Elmwood,34,Westbound,3,20660,MA19WEU,19th St Trolley Station,Trolley,No,0,,No,APC (UTA),,160,111,271,73,44,117,79,22,101,39.95347857,-75.17164971,706aaf27-ffdc-4207-a78e-be62c97d559a
-75.176759223999966,39.954131210000071,356,3420661W,Elmwood,34,Westbound,4,20661,MA22WEU,22nd St Trolley Station,Trolley,No,0,,No,APC (UTA),,135,254,389,35,48,83,45,36,81,39.95413121,-75.17675922,66f7d7d5-0ff6-444c-8806-191d66f33cc2
-75.183540157999971,39.954969249000044,357,3420662W,Elmwood,34,Westbound,5,20662,MA30WEU,30th St Trolley Station,Trolley,No,0,,No,APC (UTA),,149,360,509,25,86,111,38,49,87,39.95496925,-75.18354016,ca323d92-3c12-426d-a1c6-fa3e86f1be87
-75.189686,39.954908,358,3420658W,Elmwood,34,Westbound,6,20658,33MAWEU,33rd St Trolley Station,Trolley,No,0,,No,APC (UTA),,131,208,339,32,34,66,7,14,21,39.954908,-75.189686,b9ff5c6e-24f5-402c-93cc-33caeef2aaf5
-75.194664,39.953868,359,3420733W,Elmwood,34,Westbound,7,20733,36SASOU,36th St Trolley Station,Trolley,No,0,,No,APC (UTA),,130,168,298,15,10,25,14,8,22,39.953868,-75.194664,e626a514-1ba5-4582-a6c0-ae1a64d99359
-75.197306,39.951048,360,3420734W,Elmwood,34,Westbound,8,20734,SP37SWU,37th St Trolley Station,Trolley,No,0,,No,APC (UTA),,83,62,145,4,11,15,11,7,18,39.951048,-75.197306,f34874fc-2f4f-4f33-9424-e92ea8ad530c
-75.203599,39.949759,361,34301W,Elmwood,34,Westbound,9,301,40TPORSW,40th St Trolley Portal,Trolley,Yes,188,40PO,No,APC (UTA),,394,825,1219,128,298,426,57,187,244,39.949759,-75.203599,2b62273f-4c31-49ea-88c8-d645eab34f77
-75.202021,39.957259,362,3421248W,Elmwood,34,Westbound,10,21248,40TMARSO,40th St & Market St,Trolley,Yes,189,40MK,No,APC (UTA),,,,,,,,,,,39.957259,-75.202021,d394abfd-fa03-4aa1-be47-1043505e42b9
-75.20567,39.949912,363,3420878W,Elmwood,34,Westbound,11,20878,BAL41SWE,Baltimore Av & 41st St,Trolley,No,0,,No,APC (UTA),,14,34,48,7,18,25,4,26,30,39.949912,-75.20567,46d62efb-d6dd-4b43-bc12-02e6f41447ad
-75.207019,39.949869,364,3420879W,Elmwood,34,Westbound,12,20879,BAL42NWE,Baltimore Av & 42nd St,Trolley,No,0,,No,APC (UTA),,21,77,98,9,40,49,6,24,30,39.949869,-75.207019,39b8037c-2ba7-4902-8046-c98b76ebdb38
-75.209137,39.949644,365,3420880W,Elmwood,34,Westbound,13,20880,BAL43RWE,Baltimore Av & 43rd St,Trolley,No,0,,No,APC (UTA),,49,122,171,26,68,94,6,34,40,39.949644,-75.209137,2c3680eb-8f01-46f3-b935-3b7c093bfe01
-75.211141,39.94933,366,3420881W,Elmwood,34,Westbound,14,20881,BAL44TWE,Baltimore Av & 44th St,Trolley,No,0,,No,APC (UTA),,15,101,116,8,37,45,6,46,52,39.94933,-75.211141,85aa3cb8-fd7f-456e-8d02-9b3ff68c35f5
-75.212828,39.949148,367,3420882W,Elmwood,34,Westbound,15,20882,BAL45TWE,Baltimore Av & 45th St,Trolley,No,0,,No,APC (UTA),,24,200,224,12,76,88,12,66,78,39.949148,-75.212828,59eb6b62-604a-4ca7-b57c-68a85a66b3c8
-75.214872,39.948915,368,3420883W,Elmwood,34,Westbound,16,20883,BAL46TWE,Baltimore Av & 46th St,Trolley,No,0,,No,APC (UTA),,20,146,166,10,55,65,5,46,51,39.948915,-75.214872,8e331bea-1f8f-4be6-82e9-23c5dbd0d490
-75.216994,39.948705,369,3420884W,Elmwood,34,Westbound,17,20884,BAL47TWE,Baltimore Av & 47th St,Trolley,No,0,,No,APC (UTA),,46,213,259,12,75,87,10,88,98,39.948705,-75.216994,39a778ab-2b3c-41bd-beab-9aad1dff514b
-75.219083,39.948486,370,3420885W,Elmwood,34,Westbound,18,20885,BAL48TWE,Baltimore Av & 48th St,Trolley,No,0,,No,APC (UTA),,27,236,263,9,93,102,5,81,86,39.948486,-75.219083,a5588791-0529-4c60-8b9f-a96e7afdb9a2
-75.221125,39.948284,371,34601W,Elmwood,34,Westbound,19,601,BAL49TWE,Baltimore Av & 49th St,Trolley,Yes,364,49BA,No,APC (UTA),,75,303,378,21,158,179,13,104,117,39.948284,-75.221125,85ae8c2d-897a-47d8-b8ef-22c5267c29e9
-75.223199,39.948041,372,3420886W,Elmwood,34,Westbound,20,20886,BAL50TWE,Baltimore Av & 50th St,Trolley,No,0,,No,APC (UTA),,67,273,340,40,123,163,12,73,85,39.948041,-75.223199,45d8742f-8dee-414f-aa20-18f80092b548
-75.225282,39.947838,373,3420887W,Elmwood,34,Westbound,21,20887,BAL51TWE,Baltimore Av & 51st St,Trolley,No,0,,No,APC (UTA),,18,123,141,6,55,61,9,31,40,39.947838,-75.225282,bdfcf417-d72f-440a-b47a-0e26daaf8707
-75.227294,39.947848,374,3420888W,Elmwood,34,Westbound,22,20888,BAL52NWE,Baltimore Av & 52nd St,Trolley,No,0,,No,APC (UTA),,108,213,321,47,97,144,22,63,85,39.947848,-75.227294,48ef12e1-4e21-46b5-9cb8-c4bb89467561
-75.229317,39.947846,375,3420889W,Elmwood,34,Westbound,23,20889,BAL53RWE,Baltimore Av & 53rd St,Trolley,No,0,,No,APC (UTA),,43,158,201,9,68,77,8,31,39,39.947846,-75.229317,c1d03f5d-0a0d-4e1b-92e2-c6f9fd2a88e5
-75.231119,39.947825,376,3420890W,Elmwood,34,Westbound,24,20890,BAL54TWE,Baltimore Av & 54th St,Trolley,No,0,,No,APC (UTA),,15,111,126,7,42,49,2,25,27,39.947825,-75.231119,75ee55a6-0d21-41b5-9ea2-313261900eeb
-75.233459,39.947468,377,3420891W,Elmwood,34,Westbound,25,20891,BAL55TWE,Baltimore Av & 55th St,Trolley,No,0,,No,APC (UTA),,14,170,184,7,78,85,2,44,46,39.947468,-75.233459,de56f999-36f7-4c97-8068-d9cd09382625
-75.235519,39.946936,378,3420892W,Elmwood,34,Westbound,26,20892,BAL56TWE,Baltimore Av & 56th St,Trolley,No,0,,No,APC (UTA),,7,126,133,8,40,48,1,22,23,39.946936,-75.235519,b9e1e9ab-8e74-4bc0-af8a-b658b29697bb
-75.237814,39.946445,379,3420893W,Elmwood,34,Westbound,27,20893,BAL57TWE,Baltimore Av & 57th St,Trolley,No,0,,No,APC (UTA),,11,281,292,3,118,121,0,82,82,39.946445,-75.237814,0005c6da-d5b5-4ea7-896d-135f25be5512
-75.240234,39.945963,380,3420894W,Elmwood,34,Westbound,28,20894,BAL58TWE,Baltimore Av & 58th St,Trolley,No,0,,No,APC (UTA),,15,374,389,6,156,162,2,94,96,39.945963,-75.240234,0809883c-17f3-44e3-b938-0ccee77e8922
-75.241739,39.945417,381,3420895W,Elmwood,34,Westbound,29,20895,BAL59TWE,Baltimore Av & 59th St,Trolley,No,0,,No,APC (UTA),,4,133,137,1,42,43,1,10,11,39.945417,-75.241739,4f48cb65-6404-44b4-ae9b-f1e30d5f8994
-75.244265,39.944497,382,3420896W,Elmwood,34,Westbound,30,20896,BAL60TWE,Baltimore Av & 60th St,Trolley,No,0,,No,APC (UTA),,3,125,128,2,37,39,0,24,24,39.944497,-75.244265,b9a9ab01-a6e6-40a9-9498-5bffbe81d1a9
-75.24632,39.943886,383,34599W,Elmwood,34,Westbound,31,599,ANGLOOWE,Baltimore Av & 61st St Angora Loop,Trolley,Yes,363,61BA,No,APC (UTA),,0,350,350,0,125,125,0,110,110,39.943886,-75.24632,2edca2b5-161c-43ab-80c7-206e5b6e4948
-75.221353,39.948077,384,34600W,Elmwood,34,Westbound,32,600,BAL49TEA,Baltimore Av & 49th St,Trolley,,,,No,APC (UTA),,,,,,,,,,,39.948077,-75.221353,0ac750f2-fbd3-49fc-bce5-ef38d7fe12b6
-75.393572,39.918411,385,1011948E,Victory Spring 2018,101,Eastbound,1,1948,ORASTAEA,Orange St Station - MBNS,Trolley,Yes,1052,MEDI,No,Ridecheck Spring 2017 (May),Fall 2017 ridecheck data was not compiled when dataset was made,94,0,94,,,,,,,39.918411,-75.393572,8da6bc3c-3b49-4937-b7af-7e9bd6f40d0e
-75.392164,39.918214,386,10118615E,Victory Spring 2018,101,Eastbound,2,18615,VETSTAEA,Veterans Square Station,Trolley,No,0,,No,Ridecheck Spring 2017 (May),Fall 2017 ridecheck data was not compiled when dataset was made,25,0,25,,,,,,,39.918214,-75.392164,e40962d1-5193-4927-938d-dd5bb50cec8a
-75.391165,39.918066,387,10118616E,Victory Spring 2018,101,Eastbound,3,18616,OLISTAEA,Olive St Station,Trolley,No,0,,No,Ridecheck Spring 2017 (May),Fall 2017 ridecheck data was not compiled when dataset was made,34,3,37,,,,,,,39.918066,-75.391165,3b1f0598-5600-4560-8043-a076892ea65c
-75.389584,39.917856,388,10118617E,Victory Spring 2018,101,Eastbound,4,18617,JACSTAEA,Jackson St Station,Trolley,No,0,,No,Ridecheck Spring 2017 (May),Fall 2017 ridecheck data was not compiled when dataset was made,39,0,39,,,,,,,39.917856,-75.389584,e49a4278-051f-4d74-bc9c-02de7b4e1a3d
-75.387774,39.917612,389,10115380E,Victory Spring 2018,101,Eastbound,5,15380,MONSTAEA,Monroe St Station,Trolley,Yes,0,MONR,No,Ridecheck Spring 2017 (May),Fall 2017 ridecheck data was not compiled when dataset was made,40,4,44,,,,,,,39.917612,-75.387774,630d72cb-068b-445f-b38f-696c1cd7d0ca
-75.385772,39.917333,390,10118618E,Victory Spring 2018,101,Eastbound,6,18618,EDGSTAEA,Edgmont St Station,Trolley,No,0,,No,Ridecheck Spring 2017 (May),Fall 2017 ridecheck data was not compiled when dataset was made,10,0,10,,,,,,,39.917333,-75.385772,cac58bef-bff3-48f4-bd3d-b950036a6be7
-75.383,39.916945,391,10118619E,Victory Spring 2018,101,Eastbound,7,18619,MANSTAEA,Manchester Av Station,Trolley,No,0,,No,Ridecheck Spring 2017 (May),Fall 2017 ridecheck data was not compiled when dataset was made,11,0,11,,,,,,,39.916945,-75.383,bf4c168b-2543-4a39-b404-2b976c28c20b
-75.380719,39.916646,392,1011949E,Victory Spring 2018,101,Eastbound,8,1949,BOWSTAEA,Providence Rd Station,Trolley,Yes,1051,PROV,No,Ridecheck Spring 2017 (May),Fall 2017 ridecheck data was not compiled when dataset was made,95,5,100,,,,,,,39.916646,-75.380719,b5869685-2a4b-4a47-9248-6c5dc92ab208
-75.376779,39.916112,393,10118620E,Victory Spring 2018,101,Eastbound,9,18620,BEASTAEA,Beatty Rd Station,Trolley,No,0,,No,Ridecheck Spring 2017 (May),Fall 2017 ridecheck data was not compiled when dataset was made,9,0,9,,,,,,,39.916112,-75.376779,347317b8-d5aa-4b83-91c6-fa8fb05bfa79
-75.370001,39.914888,394,10115366E,Victory Spring 2018,101,Eastbound,10,15366,PINSTAEA,Pine Ridge Station,Trolley,Yes,0,PINR,No,Ridecheck Spring 2017 (May),Fall 2017 ridecheck data was not compiled when dataset was made,2,5,7,,,,,,,39.914888,-75.370001,e4101637-d2e8-4e45-a9ab-20df8a2b63a4
-75.357776,39.915303,395,10120025E,Victory Spring 2018,101,Eastbound,12,20025,PAPSTAEA,Paper Mill Rd Station - FS,Trolley,No,0,,No,Ridecheck Spring 2017 (May),Fall 2017 ridecheck data was not compiled when dataset was made,5,4,9,,,,,,,39.915303,-75.357776,abb65ee7-c848-4e51-9a4d-793b17a20bee
-75.348844,39.918127,396,1011951E,Victory Spring 2018,101,Eastbound,13,1951,SPMSTANE,Springfield Mall Station,Trolley,Yes,1049,MALL,No,Ridecheck Spring 2017 (May),Fall 2017 ridecheck data was not compiled when dataset was made,99,21,120,,,,,,,39.918127,-75.348844,6ae9c7ff-cb1f-4f7a-a72e-7e1c0a51c8c2
-75.345404,39.921149,397,10118621E,Victory Spring 2018,101,Eastbound,14,18621,THOSTANE,Thomson Av Station,Trolley,No,0,,No,Ridecheck Spring 2017 (May),Fall 2017 ridecheck data was not compiled when dataset was made,8,5,13,,,,,,,39.921149,-75.345404,93c6a58d-cc02-40c7-a73e-052120519e27
-75.339542,39.924697,398,1011952E,Victory Spring 2018,101,Eastbound,15,1952,WOOSTANE,Woodland Av Station - FS,Trolley,Yes,1048,WOOD,No,Ridecheck Spring 2017 (May),Fall 2017 ridecheck data was not compiled when dataset was made,11,5,16,,,,,,,39.924697,-75.339542,d951eb2e-2529-429b-96a1-6410f2ea2b41
-75.337234,39.926266,399,10118622E,Victory Spring 2018,101,Eastbound,16,18622,LEASTANE,Leamy Av Station - FS,Trolley,No,0,,No,Ridecheck Spring 2017 (May),Fall 2017 ridecheck data was not compiled when dataset was made,7,1,8,,,,,,,39.926266,-75.337234,1b6f0f75-79a0-4a4a-83fe-e2a89ff34126
-75.333439,39.928726,400,10115370E,Victory Spring 2018,101,Eastbound,17,15370,SAXSTANE,Saxer Av Station - FS,Trolley,No,0,,No,Ridecheck Spring 2017 (May),Fall 2017 ridecheck data was not compiled when dataset was made,24,14,38,,,,,,,39.928726,-75.333439,f3dcdf19-f8fd-4650-94f5-3bce4a032418
-75.329512,39.934442,401,10118623E,Victory Spring 2018,101,Eastbound,18,18623,SPRSTANE,Springfield Rd Station - FS,Trolley,No,0,,No,Ridecheck Spring 2017 (May),Fall 2017 ridecheck data was not compiled when dataset was made,18,15,33,,,,,,,39.934442,-75.329512,0c988970-3557-4b3f-ba0e-eacc0aaf7715
-75.325927,39.940723,402,1011953E,Victory Spring 2018,101,Eastbound,19,1953,SCESTANE,Scenic Rd Station,Trolley,Yes,1047,SENC,No,Ridecheck Spring 2017 (May),Fall 2017 ridecheck data was not compiled when dataset was made,10,13,23,,,,,,,39.940723,-75.325927,7a3535b3-05d7-43d1-a389-ac961a79d1cb
-75.321432,39.944781,403,10118624E,Victory Spring 2018,101,Eastbound,20,18624,DXLSTANE,Drexeline Station - FS,Trolley,No,0,,No,Ridecheck Spring 2017 (May),Fall 2017 ridecheck data was not compiled when dataset was made,37,4,41,,,,,,,39.944781,-75.321432,49eccc58-640f-4632-be4f-5ab81e6ac543
-75.315841,39.947153,404,10118625E,Victory Spring 2018,101,Eastbound,21,18625,DXBSTANE,Drexelbrook Station - FS,Trolley,No,0,,No,Ridecheck Spring 2017 (May),Fall 2017 ridecheck data was not compiled when dataset was made,36,12,48,,,,,,,39.947153,-75.315841,2f59ab7b-c67c-47ce-8533-963fe51f97ec
-75.312615,39.947834,405,10118626E,Victory Spring 2018,101,Eastbound,22,18626,ANDSTANE,Anderson Av Station - FS,Trolley,No,0,,No,Ridecheck Spring 2017 (May),Fall 2017 ridecheck data was not compiled when dataset was made,25,20,45,,,,,,,39.947834,-75.312615,0b766576-41c5-4e86-acf2-4357b2f69a46
-75.306033,39.949203,406,10116395E,Victory Spring 2018,101,Eastbound,23,16395,AROSTANE,Aronimink Station,Trolley,Yes,1708,BRMNT,No,Ridecheck Spring 2017 (May),Fall 2017 ridecheck data was not compiled when dataset was made,60,35,95,,,,,,,39.949203,-75.306033,40aa1289-5d9b-4f4c-86f0-c697c967290a
-75.299913,39.948658,407,10118627E,Victory Spring 2018,101,Eastbound,24,18627,SCHSTASE,School Ln Station,Trolley,No,0,,No,Ridecheck Spring 2017 (May),Fall 2017 ridecheck data was not compiled when dataset was made,21,3,24,,,,,,,39.948658,-75.299913,e5aa8967-82bf-41e9-be9b-80d669f66ea1
-75.297695,39.947483,408,10115376E,Victory Spring 2018,101,Eastbound,25,15376,HUESTASE,Huey Av Station,Trolley,Yes,0,HUEY,No,Ridecheck Spring 2017 (May),Fall 2017 ridecheck data was not compiled when dataset was made,6,15,21,,,,,,,39.947483,-75.297695,b5f295ef-fc03-42ae-8934-a741db1de55a
-75.292647,39.94701,409,1011955E,Victory Spring 2018,101,Eastbound,26,1955,DRXSTANE,Drexel Hill Junction Station - FS,Trolley,Yes,1045,DHJ,No,Ridecheck Spring 2017 (May),Fall 2017 ridecheck data was not compiled when dataset was made,46,40,86,,,,,,,39.94701,-75.292647,7a3c2f54-5249-4ae7-bdbd-cccc51419afc
-75.289169,39.948679,410,10118628E,Victory Spring 2018,101,Eastbound,27,18628,IRVSTANE,Irvington Rd Station,Trolley,No,0,,No,Ridecheck Spring 2017 (May),Fall 2017 ridecheck data was not compiled when dataset was made,11,8,19,,,,,,,39.948679,-75.289169,6e9d4a4c-18b3-46b5-a327-c320893fe17e
-75.286949,39.949709,411,10118629E,Victory Spring 2018,101,Eastbound,28,18629,DRESTANE,Drexel Park Station,Trolley,No,0,,No,Ridecheck Spring 2017 (May),Fall 2017 ridecheck data was not compiled when dataset was made,5,1,6,,,,,,,39.949709,-75.286949,0e25c47e-9d89-4abe-a96f-388032181575
-75.282466,39.951543,412,10130494E,Victory Spring 2018,101,Eastbound,29,30494,LANSTNNE,Lansdowne Av Station,Trolley,Yes,1044,LANS,No,Ridecheck Spring 2017 (May),Fall 2017 ridecheck data was not compiled when dataset was made,52,17,69,,,,,,,39.951543,-75.282466,4d3eb871-416b-4eb2-af60-0168ae38844c
-75.279214,39.952888,413,10115344E,Victory Spring 2018,101,Eastbound,30,15344,CONSTANE,Congress Av Station,Trolley,Yes,0,CONG,No,Ridecheck Spring 2017 (May),Fall 2017 ridecheck data was not compiled when dataset was made,58,3,61,,,,,,,39.952888,-75.279214,a450d83d-299d-4d39-8558-40f3dfa8b110
-75.274066,39.955326,414,10118630E,Victory Spring 2018,101,Eastbound,31,18630,BEVSTANE,Beverly Blvd Station,Trolley,No,0,,No,Ridecheck Spring 2017 (May),Fall 2017 ridecheck data was not compiled when dataset was made,70,15,85,,,,,,,39.955326,-75.274066,254a017f-2985-4b09-9536-40c354652ebf
-75.272357,39.956125,415,10118631E,Victory Spring 2018,101,Eastbound,32,18631,HILSTANE,Hilltop Rd Station - FS,Trolley,No,0,,No,Ridecheck Spring 2017 (May),Fall 2017 ridecheck data was not compiled when dataset was made,24,12,36,,,,,,,39.956125,-75.272357,f7d7d2b9-699c-444c-ad61-c52924fdd00a
-75.268494,39.957908,416,1011957E,Victory Spring 2018,101,Eastbound,33,1957,AVOSTANE,Avon Rd Station - FS,Trolley,No,0,,No,Ridecheck Spring 2017 (May),Fall 2017 ridecheck data was not compiled when dataset was made,35,30,65,,,,,,,39.957908,-75.268494,39e11fc6-2b61-480f-bada-1959f995dd04
-75.265912,39.95908,417,10118632E,Victory Spring 2018,101,Eastbound,34,18632,WALSTANE,Walnut St Station,Trolley,No,0,,No,Ridecheck Spring 2017 (May),Fall 2017 ridecheck data was not compiled when dataset was made,22,20,42,,,,,,,39.95908,-75.265912,09c4a21b-8b56-4133-9a00-1a9d7971652e
-75.26363,39.960807,418,10115348E,Victory Spring 2018,101,Eastbound,35,15348,FAISTANE,Fairfield Av Station,Trolley,Yes,0,FFLD,No,Ridecheck Spring 2017 (May),Fall 2017 ridecheck data was not compiled when dataset was made,0,38,38,,,,,,,39.960807,-75.26363,766c9df9-89c3-4ab8-ac24-b5bed19f03be
-75.260299,39.962093,419,10115497E,Victory Spring 2018,101,Eastbound,36,15497,69THWEST,69th St Transportation Center West Terminal,Trolley,Yes,1308,69LW,No,Ridecheck Spring 2017 (May),Fall 2017 ridecheck data was not compiled when dataset was made,0,682,682,,,,,,,39.962093,-75.260299,ab089e49-2bf6-464c-b52b-5fcd8955ceae
-75.260473,39.962269,420,10115497W,Victory Spring 2018,101,Westbound,1,15497,69THWEST,69th St Transportation Center West Terminal,Trolley,Yes,1661,69LW,No,Ridecheck Spring 2017 (May),Fall 2017 ridecheck data was not compiled when dataset was made,785,0,785,,,,,,,39.962269,-75.260473,a6a0d279-f1b3-490e-88ef-16bce378cff9
-75.263799,39.960813,421,10115319W,Victory Spring 2018,101,Westbound,2,15319,FAISTASW,Fairfield Av Station - FS,Trolley,No,0,,No,Ridecheck Spring 2017 (May),Fall 2017 ridecheck data was not compiled when dataset was made,35,3,38,,,,,,,39.960813,-75.263799,586ef871-4056-4621-8a9e-860fe2e1fc0b
-75.267101,39.958634,422,10118597W,Victory Spring 2018,101,Westbound,3,18597,WALSTASW,Walnut St Station - FS,Trolley,No,0,,No,Ridecheck Spring 2017 (May),Fall 2017 ridecheck data was not compiled when dataset was made,29,29,58,,,,,,,39.958634,-75.267101,fcf199cb-9601-4c71-81fb-2c08dbb62cc4
-75.269646,39.957478,423,1011938W,Victory Spring 2018,101,Westbound,4,1938,AVOSTASW,Avon Rd Station - FS,Trolley,No,0,,No,Ridecheck Spring 2017 (May),Fall 2017 ridecheck data was not compiled when dataset was made,28,43,71,,,,,,,39.957478,-75.269646,c42b22dc-b308-44ca-8a2c-0927fe1483b1
-75.273471,39.955692,424,10118598W,Victory Spring 2018,101,Westbound,5,18598,HILSTASW,Hilltop Rd Station - FS,Trolley,No,0,,No,Ridecheck Spring 2017 (May),Fall 2017 ridecheck data was not compiled when dataset was made,16,44,60,,,,,,,39.955692,-75.273471,45ffeaae-2f62-4e96-a051-81bc3ba7f66f
-75.275155,39.954897,425,10118599W,Victory Spring 2018,101,Westbound,6,18599,BEVSTASW,Beverly Blvd Station - FS,Trolley,No,0,,No,Ridecheck Spring 2017 (May),Fall 2017 ridecheck data was not compiled when dataset was made,15,56,71,,,,,,,39.954897,-75.275155,cbf120c8-630c-4f50-af40-99123f20f82a
-75.279175,39.953011,426,10115322W,Victory Spring 2018,101,Westbound,7,15322,CONSTASW,Congress Av Station - FS,Trolley,No,0,,No,Ridecheck Spring 2017 (May),Fall 2017 ridecheck data was not compiled when dataset was made,8,32,40,,,,,,,39.953011,-75.279175,f5b71fc0-3f63-4e40-a507-ced48df7f6c6
-75.282543,39.95166,427,1011939W,Victory Spring 2018,101,Westbound,8,1939,LANSTASW,Lansdowne Av Station - FS,Trolley,Yes,1044,LANS,No,Ridecheck Spring 2017 (May),Fall 2017 ridecheck data was not compiled when dataset was made,18,67,85,,,,,,,39.95166,-75.282543,51acfb7d-8243-416d-9946-798acaf51463
-75.286788,39.949889,428,10118600W,Victory Spring 2018,101,Westbound,9,18600,DRESTASW,Drexel Park Station,Trolley,No,0,,No,Ridecheck Spring 2017 (May),Fall 2017 ridecheck data was not compiled when dataset was made,6,6,12,,,,,,,39.949889,-75.286788,90c9bfe0-4a0c-46f3-a60a-3f631d53a9c8
-75.289009,39.948837,429,10118601W,Victory Spring 2018,101,Westbound,10,18601,IRVSTASW,Irvington Rd Station,Trolley,No,0,,No,Ridecheck Spring 2017 (May),Fall 2017 ridecheck data was not compiled when dataset was made,5,12,17,,,,,,,39.948837,-75.289009,24206c2b-2614-4e8d-a586-66401e5f1ffa
-75.292725,39.947098,430,1011940W,Victory Spring 2018,101,Westbound,11,1940,DRXSTASW,Drexel Hill Junction Station,Trolley,Yes,1045,DHJ,No,Ridecheck Spring 2017 (May),Fall 2017 ridecheck data was not compiled when dataset was made,34,39,73,,,,,,,39.947098,-75.292725,1d48deba-f599-468d-9a58-f48c8225a722
-75.297635,39.94758,431,10115349W,Victory Spring 2018,101,Westbound,12,15349,HUESTANW,Huey Av Station - FS,Trolley,No,0,,No,Ridecheck Spring 2017 (May),Fall 2017 ridecheck data was not compiled when dataset was made,12,20,32,,,,,,,39.94758,-75.297635,66075ef7-e740-4c1b-8cc3-5a9e2bf1f9e4
-75.299827,39.94871,432,10118602W,Victory Spring 2018,101,Westbound,13,18602,SCHSTANW,School Ln Station - FS,Trolley,No,0,,No,Ridecheck Spring 2017 (May),Fall 2017 ridecheck data was not compiled when dataset was made,9,37,46,,,,,,,39.94871,-75.299827,11e85682-6293-4c42-b4cd-8026888cc3eb
-75.306167,39.949287,433,10116402W,Victory Spring 2018,101,Westbound,14,16402,AROSTAWE,Aronimink Station,Trolley,Yes,1708,BRMNT,No,Ridecheck Spring 2017 (May),Fall 2017 ridecheck data was not compiled when dataset was made,22,60,82,,,,,,,39.949287,-75.306167,0232f90a-5237-4c89-b00c-eb89b4d1278b
-75.31289,39.947863,434,10118603W,Victory Spring 2018,101,Westbound,15,18603,ANRSTAWE,Anderson Av Station,Trolley,No,0,,No,Ridecheck Spring 2017 (May),Fall 2017 ridecheck data was not compiled when dataset was made,21,20,41,,,,,,,39.947863,-75.31289,b4759d1d-aace-4b6d-a1fd-1be867ba867f
-75.31602,39.947197,435,10118604W,Victory Spring 2018,101,Westbound,16,18604,DXBSTAWE,Drexelbrook Station,Trolley,No,0,,No,Ridecheck Spring 2017 (May),Fall 2017 ridecheck data was not compiled when dataset was made,11,38,49,,,,,,,39.947197,-75.31602,5b328f4c-17df-4f92-aeb2-bfd745f5ca13
-75.321531,39.944845,436,10118605W,Victory Spring 2018,101,Westbound,17,18605,DXLSTASW,Drexeline Station,Trolley,No,0,,No,Ridecheck Spring 2017 (May),Fall 2017 ridecheck data was not compiled when dataset was made,4,52,56,,,,,,,39.944845,-75.321531,aeb4799b-cdda-473b-915b-b884435177f1
-75.325972,39.94087,437,10130607W,Victory Spring 2018,101,Westbound,18,30607,SCESTASW,Scenic Rd Station,Trolley,Yes,1047,SENC,No,Ridecheck Spring 2017 (May),Fall 2017 ridecheck data was not compiled when dataset was made,13,18,31,,,,,,,39.94087,-75.325972,9dc6a61d-7ed1-4e88-b8f1-0ee1a7c90826
-75.32987,39.933836,438,10118606W,Victory Spring 2018,101,Westbound,19,18606,SPGSTASO,Springfield Rd Station - FS,Trolley,No,0,,No,Ridecheck Spring 2017 (May),Fall 2017 ridecheck data was not compiled when dataset was made,7,17,24,,,,,,,39.933836,-75.32987,747a261f-9e07-4c32-9fa0-fc58013e6f12
-75.333497,39.928811,439,10115355W,Victory Spring 2018,101,Westbound,20,15355,SAXSTASW,Saxer Av Station,Trolley,Yes,0,SAX,No,Ridecheck Spring 2017 (May),Fall 2017 ridecheck data was not compiled when dataset was made,15,19,34,,,,,,,39.928811,-75.333497,d1fd2984-47b5-46ed-a40d-866613f7e8d4
-75.337298,39.926318,440,10118614W,Victory Spring 2018,101,Westbound,21,18614,LEASTASW,Leamy Av Station,Trolley,Yes,0,LEAM,No,Ridecheck Spring 2017 (May),Fall 2017 ridecheck data was not compiled when dataset was made,6,8,14,,,,,,,39.926318,-75.337298,0aafee15-11f6-465d-8ab2-291bb61a1c0c
-75.339542,39.924697,441,1011943W,Victory Spring 2018,101,Westbound,22,1943,WOOSTASW,Woodland Av Station,Trolley,Yes,1048,WOOD,No,Ridecheck Spring 2017 (May),Fall 2017 ridecheck data was not compiled when dataset was made,6,18,24,,,,,,,39.924697,-75.339542,39b20645-1eee-4c59-9498-9cfcd8c1e2e4
-75.345404,39.921149,442,10118607W,Victory Spring 2018,101,Westbound,23,18607,THOSTASW,Thomson Av Station - FS,Trolley,No,0,,No,Ridecheck Spring 2017 (May),Fall 2017 ridecheck data was not compiled when dataset was made,6,14,20,,,,,,,39.921149,-75.345404,48409e79-f94f-4a90-a7af-c699d9bde1ad
-75.348844,39.918127,443,1011944W,Victory Spring 2018,101,Westbound,24,1944,SPMSTASW,Springfield Mall Station,Trolley,Yes,1049,MALL,No,Ridecheck Spring 2017 (May),Fall 2017 ridecheck data was not compiled when dataset was made,19,139,158,,,,,,,39.918127,-75.348844,950b4082-781b-45fe-9439-1fee65d657a9
-75.357776,39.915303,444,10120024W,Victory Spring 2018,101,Westbound,25,20024,PAPSTAWE,Paper Mill Rd Station,Trolley,No,0,,No,Ridecheck Spring 2017 (May),Fall 2017 ridecheck data was not compiled when dataset was made,0,5,5,,,,,,,39.915303,-75.357776,8647fd79-a120-4935-a30a-7f76ccae8762
-75.369995,39.914993,445,10115358W,Victory Spring 2018,101,Westbound,27,15358,PINSTAWE,Pine Ridge Station - FS,Trolley,No,0,,No,Ridecheck Spring 2017 (May),Fall 2017 ridecheck data was not compiled when dataset was made,2,8,10,,,,,,,39.914993,-75.369995,8a3821e9-339e-45b2-8914-901df7e3324e
-75.376789,39.916189,446,10118608W,Victory Spring 2018,101,Westbound,28,18608,BEASTAWE,Beatty Rd Station,Trolley,No,0,,No,Ridecheck Spring 2017 (May),Fall 2017 ridecheck data was not compiled when dataset was made,0,17,17,,,,,,,39.916189,-75.376789,dbd919df-9072-4192-a2cd-7e5de88c3969
-75.380719,39.916646,447,1011946W,Victory Spring 2018,101,Westbound,29,1946,BOWSTAWE,Providence Rd Station,Trolley,Yes,1051,PROV,No,Ridecheck Spring 2017 (May),Fall 2017 ridecheck data was not compiled when dataset was made,2,57,59,,,,,,,39.916646,-75.380719,75b4657b-936c-4031-bb9d-b535e45f90da
-75.382747,39.91704,448,10118609W,Victory Spring 2018,101,Westbound,30,18609,MANSTAWE,Manchester Av Station,Trolley,No,0,,No,Ridecheck Spring 2017 (May),Fall 2017 ridecheck data was not compiled when dataset was made,3,23,26,,,,,,,39.91704,-75.382747,6bf5e5a2-c6e7-4197-9394-fb439142d0f0
-75.385528,39.917435,449,10118610W,Victory Spring 2018,101,Westbound,31,18610,EDGSTAWE,Edgmont St Station,Trolley,No,0,,No,Ridecheck Spring 2017 (May),Fall 2017 ridecheck data was not compiled when dataset was made,1,15,16,,,,,,,39.917435,-75.385528,967e88db-02f9-4665-8146-e640cc0b7b5e
-75.387474,39.917701,450,10115379W,Victory Spring 2018,101,Westbound,32,15379,MONSTAWE,Monroe St Station,Trolley,Yes,0,MONR,No,Ridecheck Spring 2017 (May),Fall 2017 ridecheck data was not compiled when dataset was made,0,40,40,,,,,,,39.917701,-75.387474,7e8331f2-bbbf-4912-8000-ba7d4c8866d2
-75.389321,39.917965,451,10118611W,Victory Spring 2018,101,Westbound,33,18611,JACSTAWE,Jackson St Station,Trolley,No,0,,No,Ridecheck Spring 2017 (May),Fall 2017 ridecheck data was not compiled when dataset was made,0,47,47,,,,,,,39.917965,-75.389321,3c2dc767-f60e-409c-80e0-0a5805fed9a1
-75.390917,39.9182,452,10118612W,Victory Spring 2018,101,Westbound,34,18612,OLISTAWE,Olive St Station,Trolley,No,0,,No,Ridecheck Spring 2017 (May),Fall 2017 ridecheck data was not compiled when dataset was made,0,28,28,,,,,,,39.9182,-75.390917,718167b2-c90e-4552-83d6-f3c660ca09f9
-75.391884,39.918313,453,10118613W,Victory Spring 2018,101,Westbound,35,18613,VETSTAWE,Veterans Square Station,Trolley,No,0,,No,Ridecheck Spring 2017 (May),Fall 2017 ridecheck data was not compiled when dataset was made,0,29,29,,,,,,,39.918313,-75.391884,9048cc38-d5c4-4c8b-912f-a62407067e40
-75.393545,39.918537,454,1011947W,Victory Spring 2018,101,Westbound,36,1947,ORASTAWE,Orange St Station - MBFS,Trolley,Yes,1052,MEDI,No,Ridecheck Spring 2017 (May),Fall 2017 ridecheck data was not compiled when dataset was made,0,77,77,,,,,,,39.918537,-75.393545,07c83da0-9e5c-4754-abfb-136e43c4c05f
-75.278021,39.906546,455,10220431E,Victory Spring 2018,102,Eastbound,1,20431,SHASTA,Sharon Hill Station,Trolley,Yes,1868,SH102,No,Ridecheck Spring 2017 (May),Fall 2017 ridecheck data was not compiled when dataset was made,283,0,283,,,,,,,39.906546,-75.278021,00a4b7b8-f513-4150-a9c3-82a8f990972b
-75.280904,39.910368,456,10229523E,Victory Spring 2018,102,Eastbound,2,29523,MACSTANO,MacDade Blvd Station - FS,Trolley,No,0,,No,Ridecheck Spring 2017 (May),Fall 2017 ridecheck data was not compiled when dataset was made,153,4,157,,,,,,,39.910368,-75.280904,1bb3d881-6932-4fed-acca-9830b51ecf0d
-75.281957,39.911724,457,10215334E,Victory Spring 2018,102,Eastbound,3,15334,ANDAVNO,Andrews Av Station - FS,Trolley,No,0,,No,Ridecheck Spring 2017 (May),Fall 2017 ridecheck data was not compiled when dataset was made,21,4,25,,,,,,,39.911724,-75.281957,86245488-a955-414d-b6c5-8d7af558812b
-75.284242,39.9147,458,10218842E,Victory Spring 2018,102,Eastbound,4,18842,BARSTANO,Bartram Av Station - FS,Trolley,Yes,0,BARSTA,No,Ridecheck Spring 2017 (May),Fall 2017 ridecheck data was not compiled when dataset was made,19,6,25,,,,,,,39.9147,-75.284242,8c37ae41-c0b3-4c80-a72f-f5e279cc0373
-75.285563,39.91774,459,1021964E,Victory Spring 2018,102,Eastbound,5,1964,NORSTANO,North St Station - MBFS,Trolley,Yes,1055,N ST,No,Ridecheck Spring 2017 (May),Fall 2017 ridecheck data was not compiled when dataset was made,36,7,43,,,,,,,39.91774,-75.285563,1250cec6-a82d-43d6-84bb-1a6ac44a5baa
-75.28675,39.919419,460,10218843E,Victory Spring 2018,102,Eastbound,6,18843,MAGSTANO,Magnolia Av Station,Trolley,No,0,,No,Ridecheck Spring 2017 (May),Fall 2017 ridecheck data was not compiled when dataset was made,6,5,11,,,,,,,39.919419,-75.28675,41b573e8-e553-4e6f-9769-a1f0b0b942fb
-75.288575,39.921777,461,10218844E,Victory Spring 2018,102,Eastbound,7,18844,PROSTANO,Providence Rd Station - FS,Trolley,No,0,,No,Ridecheck Spring 2017 (May),Fall 2017 ridecheck data was not compiled when dataset was made,10,5,15,,,,,,,39.921777,-75.288575,a89dbc16-c20c-46de-98f4-6f7bb6e2e415
-75.289905,39.925511,462,10230374E,Victory Spring 2018,102,Eastbound,8,30374,CLISTNNO,Clifton Aldan Station,Trolley,Yes,1725,CLAL,No,Ridecheck Spring 2017 (May),Fall 2017 ridecheck data was not compiled when dataset was made,32,8,40,,,,,,,39.925511,-75.289905,e257967e-2309-417c-970c-aa4727d13124
-75.29262,39.92738,463,10230544E,Victory Spring 2018,102,Eastbound,9,30544,SPRSTANO,Springfield Rd Station,Trolley,No,0,,No,Ridecheck Spring 2017 (May),Fall 2017 ridecheck data was not compiled when dataset was made,41,14,55,,,,,,,39.92738,-75.29262,6c4ed051-9b97-4bef-8e0b-d1e08b65a28f
-75.292073,39.928589,464,10230375E,Victory Spring 2018,102,Eastbound,10,30375,PENSTANO,Penn St Station,Trolley,Yes,0,PENST,No,Ridecheck Spring 2017 (May),Fall 2017 ridecheck data was not compiled when dataset was made,17,5,22,,,,,,,39.928589,-75.292073,d24307bc-de3f-459f-940e-55317ae8de33
-75.292809,39.931264,465,10230376E,Victory Spring 2018,102,Eastbound,11,30376,BALSTANO,Baltimore Av Station - FS,Trolley,Yes,1053,BALT,No,Ridecheck Spring 2017 (May),Fall 2017 ridecheck data was not compiled when dataset was made,64,52,116,,,,,,,39.931264,-75.292809,35c8af0a-1787-41bb-a66c-1896996818eb
-75.295095,39.93512,466,10215339E,Victory Spring 2018,102,Eastbound,12,15339,CRESTANO,Creek Rd Station - FS,Trolley,No,0,,No,Ridecheck Spring 2017 (May),Fall 2017 ridecheck data was not compiled when dataset was made,19,4,23,,,,,,,39.93512,-75.295095,30690595-2001-4dba-8e75-af5c6764afa3
-75.296443,39.940215,467,10215340E,Victory Spring 2018,102,Eastbound,13,15340,MARSTANO,Marshall Rd Station - FS,Trolley,No,0,,No,Ridecheck Spring 2017 (May),Fall 2017 ridecheck data was not compiled when dataset was made,47,13,60,,,,,,,39.940215,-75.296443,1897fb88-a8c7-4dc9-a767-3459d0a4b764
-75.296509,39.942187,468,10218846E,Victory Spring 2018,102,Eastbound,14,18846,DRESTANO,Drexel Manor Station - MBNS,Trolley,No,0,,No,Ridecheck Spring 2017 (May),Fall 2017 ridecheck data was not compiled when dataset was made,27,4,31,,,,,,,39.942187,-75.296509,d84f4c95-9cad-414f-84ad-4b2117f9e6ec
-75.295824,39.944043,469,10215341E,Victory Spring 2018,102,Eastbound,15,15341,GARSTANO,Garrettford Station,Trolley,No,0,,No,Ridecheck Spring 2017 (May),Fall 2017 ridecheck data was not compiled when dataset was made,28,14,42,,,,,,,39.944043,-75.295824,0b50ecbb-69f7-423f-b3a9-543d341f2d30
-75.292647,39.94701,470,1021955E,Victory Spring 2018,102,Eastbound,16,1955,DRXSTANE,Drexel Hill Junction Station - FS,Trolley,Yes,1045,DHJ,No,Ridecheck Spring 2017 (May),Fall 2017 ridecheck data was not compiled when dataset was made,16,35,51,,,,,,,39.94701,-75.292647,f55cbae5-ea95-43f3-9a76-0a1a4c9c9c24
-75.289169,39.948679,471,10218628E,Victory Spring 2018,102,Eastbound,17,18628,IRVSTANE,Irvington Rd Station,Trolley,No,0,,No,Ridecheck Spring 2017 (May),Fall 2017 ridecheck data was not compiled when dataset was made,5,3,8,,,,,,,39.948679,-75.289169,a4b9e67f-cc91-42d8-89ad-ba3af85641a8
-75.286949,39.949709,472,10218629E,Victory Spring 2018,102,Eastbound,18,18629,DRESTANE,Drexel Park Station,Trolley,No,0,,No,Ridecheck Spring 2017 (May),Fall 2017 ridecheck data was not compiled when dataset was made,10,0,10,,,,,,,39.949709,-75.286949,2057e3fb-3d8b-4f92-b479-f41037fa6df9
-75.282466,39.951543,473,10230494E,Victory Spring 2018,102,Eastbound,19,30494,LANSTNNE,Lansdowne Av Station,Trolley,Yes,1044,LANS,No,Ridecheck Spring 2017 (May),Fall 2017 ridecheck data was not compiled when dataset was made,34,53,87,,,,,,,39.951543,-75.282466,48ad995c-3a00-4acb-9405-6caf63ebfa1f
-75.279214,39.952888,474,10215344E,Victory Spring 2018,102,Eastbound,20,15344,CONSTANE,Congress Av Station,Trolley,Yes,0,CONG,No,Ridecheck Spring 2017 (May),Fall 2017 ridecheck data was not compiled when dataset was made,19,4,23,,,,,,,39.952888,-75.279214,652740d3-2b95-4184-9eaa-65e196a2b260
-75.274066,39.955326,475,10218630E,Victory Spring 2018,102,Eastbound,21,18630,BEVSTANE,Beverly Blvd Station,Trolley,No,0,,No,Ridecheck Spring 2017 (May),Fall 2017 ridecheck data was not compiled when dataset was made,42,25,67,,,,,,,39.955326,-75.274066,4eb8554b-2621-4286-8582-2bc66a21734b
-75.272357,39.956125,476,10218631E,Victory Spring 2018,102,Eastbound,22,18631,HILSTANE,Hilltop Rd Station - FS,Trolley,No,0,,No,Ridecheck Spring 2017 (May),Fall 2017 ridecheck data was not compiled when dataset was made,8,10,18,,,,,,,39.956125,-75.272357,0c671574-1b63-45bd-8da5-74dd8adb3f5f
-75.268494,39.957908,477,1021957E,Victory Spring 2018,102,Eastbound,23,1957,AVOSTANE,Avon Rd Station - FS,Trolley,No,0,,No,Ridecheck Spring 2017 (May),Fall 2017 ridecheck data was not compiled when dataset was made,17,30,47,,,,,,,39.957908,-75.268494,0e1c5295-5180-41e8-a5b9-822dcb1619cf
-75.265912,39.95908,478,10218632E,Victory Spring 2018,102,Eastbound,24,18632,WALSTANE,Walnut St Station,Trolley,No,0,,No,Ridecheck Spring 2017 (May),Fall 2017 ridecheck data was not compiled when dataset was made,16,16,32,,,,,,,39.95908,-75.265912,252e3dff-7ecd-481d-a7f2-711e08419a5d
-75.26363,39.960807,479,10215348E,Victory Spring 2018,102,Eastbound,25,15348,FAISTANE,Fairfield Av Station,Trolley,Yes,0,FFLD,No,Ridecheck Spring 2017 (May),Fall 2017 ridecheck data was not compiled when dataset was made,0,32,32,,,,,,,39.960807,-75.26363,2b21160e-efe8-41cd-bfc7-0592e267700e
-75.260299,39.962093,480,10215497E,Victory Spring 2018,102,Eastbound,26,15497,69THWEST,69th St Transportation Center West Terminal,Trolley,Yes,1308,69LW,No,Ridecheck Spring 2017 (May),Fall 2017 ridecheck data was not compiled when dataset was made,0,617,617,,,,,,,39.962093,-75.260299,ee1338b6-d8fc-4b91-a8ee-7f5751d9996d
-75.260473,39.962269,481,10215497W,Victory Spring 2018,102,Westbound,1,15497,69THWEST,69th St Transportation Center West Terminal,Trolley,Yes,1661,69LW,No,Ridecheck Spring 2017 (May),Fall 2017 ridecheck data was not compiled when dataset was made,683,0,683,,,,,,,39.962269,-75.260473,5bdac535-5c9d-442e-a019-cab2fd91d061
-75.263799,39.960813,482,10215319W,Victory Spring 2018,102,Westbound,2,15319,FAISTASW,Fairfield Av Station - FS,Trolley,No,0,,No,Ridecheck Spring 2017 (May),Fall 2017 ridecheck data was not compiled when dataset was made,29,7,36,,,,,,,39.960813,-75.263799,e283d6a6-690a-452e-ab95-33c8d8f7f1c3
-75.267101,39.958634,483,10218597W,Victory Spring 2018,102,Westbound,3,18597,WALSTASW,Walnut St Station - FS,Trolley,No,0,,No,Ridecheck Spring 2017 (May),Fall 2017 ridecheck data was not compiled when dataset was made,26,19,45,,,,,,,39.958634,-75.267101,a29340dd-0be0-4c3d-b830-f7bbb7138552
-75.269646,39.957478,484,1021938W,Victory Spring 2018,102,Westbound,4,1938,AVOSTASW,Avon Rd Station - FS,Trolley,No,0,,No,Ridecheck Spring 2017 (May),Fall 2017 ridecheck data was not compiled when dataset was made,23,45,68,,,,,,,39.957478,-75.269646,31c6992e-13b9-46d3-8821-d8fb9f075024
-75.273471,39.955692,485,10218598W,Victory Spring 2018,102,Westbound,5,18598,HILSTASW,Hilltop Rd Station - FS,Trolley,No,0,,No,Ridecheck Spring 2017 (May),Fall 2017 ridecheck data was not compiled when dataset was made,17,36,53,,,,,,,39.955692,-75.273471,708de82e-b8fa-4fd2-8053-a559728a3499
-75.275155,39.954897,486,10218599W,Victory Spring 2018,102,Westbound,6,18599,BEVSTASW,Beverly Blvd Station - FS,Trolley,No,0,,No,Ridecheck Spring 2017 (May),Fall 2017 ridecheck data was not compiled when dataset was made,27,41,68,,,,,,,39.954897,-75.275155,7080d056-2f6c-43dc-9654-662c4c8e4254
-75.279175,39.953011,487,10215322W,Victory Spring 2018,102,Westbound,7,15322,CONSTASW,Congress Av Station - FS,Trolley,No,0,,No,Ridecheck Spring 2017 (May),Fall 2017 ridecheck data was not compiled when dataset was made,8,19,27,,,,,,,39.953011,-75.279175,202c3e63-473f-4d32-ad32-b1278ce56a03
-75.282543,39.95166,488,1021939W,Victory Spring 2018,102,Westbound,8,1939,LANSTASW,Lansdowne Av Station - FS,Trolley,Yes,1044,LANS,No,Ridecheck Spring 2017 (May),Fall 2017 ridecheck data was not compiled when dataset was made,45,65,110,,,,,,,39.95166,-75.282543,9462240d-a657-48ad-8e0e-76d23bf1673a
-75.286788,39.949889,489,10218600W,Victory Spring 2018,102,Westbound,9,18600,DRESTASW,Drexel Park Station,Trolley,No,0,,No,Ridecheck Spring 2017 (May),Fall 2017 ridecheck data was not compiled when dataset was made,5,8,13,,,,,,,39.949889,-75.286788,e0e8143d-b877-47cc-9065-422a5eed0b7b
-75.289009,39.948837,490,10218601W,Victory Spring 2018,102,Westbound,10,18601,IRVSTASW,Irvington Rd Station,Trolley,No,0,,No,Ridecheck Spring 2017 (May),Fall 2017 ridecheck data was not compiled when dataset was made,2,6,8,,,,,,,39.948837,-75.289009,bbc7df07-0621-41a9-81d4-351c6a425072
-75.292725,39.947098,491,1021940W,Victory Spring 2018,102,Westbound,11,1940,DRXSTASW,Drexel Hill Junction Station,Trolley,Yes,1045,DHJ,No,Ridecheck Spring 2017 (May),Fall 2017 ridecheck data was not compiled when dataset was made,33,39,72,,,,,,,39.947098,-75.292725,bc82c718-0af8-4464-a079-9a4e522c23bf
-75.295949,39.944049,492,10215325W,Victory Spring 2018,102,Westbound,12,15325,GARSTASO,Garrettford Station - FS,Trolley,No,0,,No,Ridecheck Spring 2017 (May),Fall 2017 ridecheck data was not compiled when dataset was made,22,30,52,,,,,,,39.944049,-75.295949,e39f50da-3871-4ef8-9a50-84cad2f3fe69
-75.296602,39.942216,493,10215326W,Victory Spring 2018,102,Westbound,13,15326,DXMSTASO,Drexel Manor Station - MBFS,Trolley,No,0,,No,Ridecheck Spring 2017 (May),Fall 2017 ridecheck data was not compiled when dataset was made,4,32,36,,,,,,,39.942216,-75.296602,616ab4d4-b00b-4fa0-a97b-32461ef666ed
-75.29656,39.940187,494,10215327W,Victory Spring 2018,102,Westbound,14,15327,MARSTASO,Marshall Rd Station,Trolley,Yes,0,MRD,No,Ridecheck Spring 2017 (May),Fall 2017 ridecheck data was not compiled when dataset was made,11,33,44,,,,,,,39.940187,-75.29656,fbd445fa-f096-4af5-aa05-0abc2d53fc1b
-75.295269,39.935098,495,10215328W,Victory Spring 2018,102,Westbound,15,15328,CRESTASO,Creek Rd Station,Trolley,No,0,,No,Ridecheck Spring 2017 (May),Fall 2017 ridecheck data was not compiled when dataset was made,0,11,11,,,,,,,39.935098,-75.295269,2df6f22a-1971-456b-8184-11726e8460e2
-75.29291,39.93122,496,1021959W,Victory Spring 2018,102,Westbound,16,1959,BALSTASO,Baltimore Av Station,Trolley,Yes,1053,BALT,No,Ridecheck Spring 2017 (May),Fall 2017 ridecheck data was not compiled when dataset was made,50,72,122,,,,,,,39.93122,-75.29291,be2d39d0-e5be-4374-b350-8036fe533dbb
-75.291988,39.928944,497,10215329W,Victory Spring 2018,102,Westbound,17,15329,PENSTASO,Penn St Station,Trolley,Yes,0,PENST,No,Ridecheck Spring 2017 (May),Fall 2017 ridecheck data was not compiled when dataset was made,5,20,25,,,,,,,39.928944,-75.291988,f6e00250-b628-4dec-8ba9-d4048a9e98a0
-75.292699,39.927316,498,10215330W,Victory Spring 2018,102,Westbound,18,15330,SPRSTNSO,Springfield Rd Station,Trolley,No,0,,No,Ridecheck Spring 2017 (May),Fall 2017 ridecheck data was not compiled when dataset was made,14,35,49,,,,,,,39.927316,-75.292699,077b6153-372f-43a8-81c9-c34fe9539e5a
-75.290109,39.925507,499,10218636W,Victory Spring 2018,102,Westbound,19,18636,CLISTASO,Clifton Aldan Station - FS,Trolley,Yes,1725,CLAL,No,Ridecheck Spring 2017 (May),Fall 2017 ridecheck data was not compiled when dataset was made,16,27,43,,,,,,,39.925507,-75.290109,0c7440c9-2b8b-4ade-b2b3-be629bc98697
-75.288677,39.921647,500,10212048W,Victory Spring 2018,102,Westbound,20,12048,PRRSTASE,Providence Rd Station,Trolley,No,0,,No,Ridecheck Spring 2017 (May),Fall 2017 ridecheck data was not compiled when dataset was made,7,14,21,,,,,,,39.921647,-75.288677,cbe84905-9de0-45d8-8825-3a3680f7dc38
-75.286994,39.919524,501,10210011W,Victory Spring 2018,102,Westbound,21,10011,MAGSTASE,Magnolia Av Station,Trolley,No,0,,No,Ridecheck Spring 2017 (May),Fall 2017 ridecheck data was not compiled when dataset was made,6,15,21,,,,,,,39.919524,-75.286994,d28ae4b5-032e-46aa-9091-54f86b6995ba
-75.285531,39.917477,502,1021961W,Victory Spring 2018,102,Westbound,22,1961,NORSTASO,North St Station,Trolley,Yes,1055,N ST,No,Ridecheck Spring 2017 (May),Fall 2017 ridecheck data was not compiled when dataset was made,9,40,49,,,,,,,39.917477,-75.285531,59325f81-cac9-4b70-93a5-a3928d3e17cf
-75.284264,39.914607,503,1024726W,Victory Spring 2018,102,Westbound,23,4726,BARSTASE,Bartram Av Station,Trolley,Yes,0,BARSTA,No,Ridecheck Spring 2017 (May),Fall 2017 ridecheck data was not compiled when dataset was made,3,23,26,,,,,,,39.914607,-75.284264,bcb8169f-8b77-49c4-bbb4-c9297be3a180
-75.282012,39.911642,504,10215333W,Victory Spring 2018,102,Westbound,24,15333,ANDSTASO,Andrews Av Station,Trolley,Yes,0,ANDAV,No,Ridecheck Spring 2017 (May),Fall 2017 ridecheck data was not compiled when dataset was made,2,32,34,,,,,,,39.911642,-75.282012,d57a8164-c687-4de0-8570-1371298dda16
-75.280976,39.910265,505,1022099W,Victory Spring 2018,102,Westbound,25,2099,MACSTASE,MacDade Blvd Station,Trolley,Yes,0,CDST,No,Ridecheck Spring 2017 (May),Fall 2017 ridecheck data was not compiled when dataset was made,7,122,129,,,,,,,39.910265,-75.280976,b6c1650f-b45f-477d-ab7b-0e42396cdcfd
-75.278131,39.906504,506,10220431W,Victory Spring 2018,102,Westbound,26,20431,SHASTA,Sharon Hill Station,Trolley,Yes,1868,SH102,No,Ridecheck Spring 2017 (May),Fall 2017 ridecheck data was not compiled when dataset was made,0,263,263,,,,,,,39.906504,-75.278131,516c4858-a240-4838-9536-00f601dea725
-75.245893,39.983722,507,1031294E,City Spring 2018,10,Eastbound,1,31294,MALLOOSW,Malvern Av & 63rd St Loop - 2 onsite,Trolley,Yes,174,63ML,No,APC (UTA),data is from Fall 2017.  ,252,0,252,43,0,43,31,0,31,39.983722,-75.245893,7c4ebe4c-33b5-4504-b6d9-10d393dfab20
-75.247009,39.983697,508,1020610E,City Spring 2018,10,Eastbound,2,20610,MAL63RSW,Malvern Av & 63rd St,Trolley,No,0,,No,APC (UTA),data is from Fall 2017.  ,,,,,,,,,,39.983697,-75.247009,b0d0735f-8489-4861-8203-012454f950ee
-75.246708,39.980898,509,1020611E,City Spring 2018,10,Eastbound,3,20611,63RLEBSO,63rd St & Lebanon Av,Trolley,No,0,,No,APC (UTA),data is from Fall 2017.  ,68,4,72,12,2,14,8,0,8,39.980898,-75.246708,3f1f8b1f-7608-49a8-9225-6f4d2dafb1fd
-75.246227,39.978361,510,1020612E,City Spring 2018,10,Eastbound,4,20612,63RJEFSO,63rd St & Jefferson St,Trolley,No,0,,No,APC (UTA),data is from Fall 2017.  ,73,13,86,6,1,7,5,2,7,39.978361,-75.246227,2c439f91-e52f-4e6f-9d5e-847e21140c2b
-75.244986,39.975332,511,1020613E,City Spring 2018,10,Eastbound,5,20613,LAN63DEA,Lansdowne Av & 63rd - FS,Trolley,No,0,,No,APC (UTA),data is from Fall 2017.  ,42,8,50,0,0,0,2,1,3,39.975332,-75.244986,1b7e91c9-d92d-4e18-8e6d-fd0d71ba328e
-75.243665,39.975487,512,1020614E,City Spring 2018,10,Eastbound,6,20614,LAN62NEA,Lansdowne Av & 62nd St,Trolley,No,0,,No,APC (UTA),data is from Fall 2017.  ,19,9,28,4,0,4,3,0,3,39.975487,-75.243665,9707a6fe-e6b2-440c-b47f-58b76bd4fedc
-75.241879,39.975685,513,1020615E,City Spring 2018,10,Eastbound,7,20615,LAN61SEA,Lansdowne Av & 61st St,Trolley,No,0,,No,APC (UTA),data is from Fall 2017.  ,33,4,37,3,0,3,6,0,6,39.975685,-75.241879,89ead080-12d1-4e22-a528-f107071f40a1
-75.240317,39.975847,514,1015271E,City Spring 2018,10,Eastbound,8,15271,LAN60TEA,Lansdowne Av & 60th St,Trolley,Yes,426,60LN,No,APC (UTA),data is from Fall 2017.  ,112,15,127,28,2,30,12,4,16,39.975847,-75.240317,9657c26a-b841-40f1-a2e1-c6f0af4194bd
-75.238657,39.976039,515,1020616E,City Spring 2018,10,Eastbound,9,20616,LAN59TEA,Lansdowne Av & 59th St,Trolley,No,0,,No,APC (UTA),data is from Fall 2017.  ,45,10,55,8,2,10,2,0,2,39.976039,-75.238657,e944f720-3ffb-406a-8128-d3c6479953b7
-75.236888,39.976232,516,1020617E,City Spring 2018,10,Eastbound,10,20617,LAN58TEA,Lansdowne Av & 58th St,Trolley,No,0,,No,APC (UTA),data is from Fall 2017.  ,36,9,45,2,0,2,0,0,0,39.976232,-75.236888,36dba960-eb5c-4fcd-a87c-90ce42c90196
-75.23542,39.976383,517,1020618E,City Spring 2018,10,Eastbound,11,20618,LAN57TEA,Lansdowne Av & 57th St,Trolley,No,0,,No,APC (UTA),data is from Fall 2017.  ,62,12,74,5,1,6,6,2,8,39.976383,-75.23542,e8f9e2bc-d311-4685-aef5-a08569c8d3f8
-75.233761,39.976583,518,1020619E,City Spring 2018,10,Eastbound,12,20619,LAN56TEA,Lansdowne Av & 56th St,Trolley,No,0,,No,APC (UTA),data is from Fall 2017.  ,100,29,129,20,4,24,20,6,26,39.976583,-75.233761,8f9d4554-2b51-4ab7-a659-50ea9f2d78ab
-75.231865,39.976793,519,1020622E,City Spring 2018,10,Eastbound,13,20622,LAN55TEA,Lansdowne Av & 55th St,Trolley,No,0,,No,APC (UTA),data is from Fall 2017.  ,73,17,90,7,2,9,8,3,11,39.976793,-75.231865,1b2b23ad-43e0-4b3a-99e7-a41dcc53184a
-75.229908,39.977003,520,1020623E,City Spring 2018,10,Eastbound,14,20623,LAN54TEA,Lansdowne Av & 54th St,Trolley,No,0,,No,APC (UTA),data is from Fall 2017.  ,27,21,48,2,0,2,2,0,2,39.977003,-75.229908,15091786-2ae9-461d-a33e-696ea7c8fc0d
-75.227367,39.977285,521,1020624E,City Spring 2018,10,Eastbound,15,20624,LANLANEA,Lansdowne Av & Lancaster Av,Trolley,Yes,176,52LN,No,APC (UTA),data is from Fall 2017.  ,31,89,120,7,14,21,1,6,7,39.977285,-75.227367,c2158be3-b0f9-47a7-aa1c-e6e22dc44b88
-75.22619,39.976848,522,1020625E,City Spring 2018,10,Eastbound,16,20625,LANBIBSE,Lancaster Av & Bible Way,Trolley,No,0,,No,APC (UTA),data is from Fall 2017.  ,94,22,116,34,7,41,7,4,11,39.976848,-75.22619,50305348-1874-4394-ba81-147d1fcd3542
-75.22262,39.9752,523,1020626E,City Spring 2018,10,Eastbound,17,20626,LAN50NSE,Lancaster Av & 50th St,Trolley,No,0,,No,APC (UTA),data is from Fall 2017.  ,29,3,32,16,2,18,2,0,2,39.9752,-75.22262,7d203ff7-f4c4-4677-b1aa-9464d56bd774
-75.219794,39.973734,524,1020627E,City Spring 2018,10,Eastbound,18,20627,LANTHOSE,Lancaster Av & Thompson St,Trolley,No,0,,No,APC (UTA),data is from Fall 2017.  ,21,4,25,8,2,10,1,0,1,39.973734,-75.219794,ef470efa-b089-4020-b860-7047a08bc912
-75.218726,39.973107,525,10277E,City Spring 2018,10,Eastbound,19,277,LANGIRSE,Lancaster Av & Girard Av,Trolley,Yes,177,LAGR,No,APC (UTA),data is from Fall 2017.  ,26,24,50,8,6,14,2,4,6,39.973107,-75.218726,7201291b-da77-4a49-8afd-0156ae4baea1
-75.216115,39.971555,526,1020628E,City Spring 2018,10,Eastbound,20,20628,LAN47TSE,Lancaster Av & 47th St,Trolley,No,0,,No,APC (UTA),data is from Fall 2017.  ,63,29,92,13,3,16,3,5,8,39.971555,-75.216115,61e3f9a9-bc45-4a3a-b8c0-e7c825ee8a0f
-75.212998,39.96966,527,1020630E,City Spring 2018,10,Eastbound,21,20630,LAN45TSE,Lancaster Av & 45th St,Trolley,No,0,,No,APC (UTA),data is from Fall 2017.  ,109,71,180,24,8,32,4,2,6,39.96966,-75.212998,8a8bd29f-ff6b-45b1-acc9-17ceb1dae6c1
-75.211541,39.968772,528,1020631E,City Spring 2018,10,Eastbound,22,20631,LAN44TSE,Lancaster Av & 44th St,Trolley,No,0,,No,APC (UTA),data is from Fall 2017.  ,19,15,34,10,5,15,2,0,2,39.968772,-75.211541,4d64b701-d74e-4a8e-8e87-cdd8c7b6cff5
-75.209878,39.967725,529,1020632E,City Spring 2018,10,Eastbound,23,20632,LAN43TSE,Lancaster Av & 43th St,Trolley,No,0,,No,APC (UTA),data is from Fall 2017.  ,63,32,95,10,11,21,7,5,12,39.967725,-75.209878,6353c64d-b8f2-40dd-a323-74ec770cdb93
-75.207666,39.966373,530,1020633E,City Spring 2018,10,Eastbound,24,20633,LAN42NSE,Lancaster Av & 42nd St,Trolley,No,0,,No,APC (UTA),data is from Fall 2017.  ,39,18,57,11,2,13,8,3,11,39.966373,-75.207666,87c70097-aa2c-48cd-af51-23ed8c51e00a
-75.205564,39.965093,531,1020634E,City Spring 2018,10,Eastbound,25,20634,LAN41SSE,Lancaster Av & 41st St,Trolley,No,0,,No,APC (UTA),data is from Fall 2017.  ,104,60,164,24,16,40,8,7,15,39.965093,-75.205564,b1e12f4e-4458-4a61-99d7-b0f685a0eb79
-75.20249,39.963132,532,1020635E,City Spring 2018,10,Eastbound,26,20635,LAN40TSE,Lancaster Av & 40th St,Trolley,Yes,178,40LA,No,APC (UTA),data is from Fall 2017.  ,88,50,138,20,14,34,13,8,21,39.963132,-75.20249,e047963e-bb86-42fe-84b8-141f7a52ab02
-75.201936,39.957958,533,10279E,City Spring 2018,10,Eastbound,27,279,40TFILSO,40th St & Filbert St,Trolley,Yes,179,40FI,No,APC (UTA),data is from Fall 2017.  ,0,18,18,,,,,,,39.957958,-75.201936,890d02c9-7584-4754-b62f-c47d21555bd9
-75.200392,39.96202,534,1020636E,City Spring 2018,10,Eastbound,28,20636,LANSPRSE,Lancaster Av & Spring Garden St,Trolley,No,0,,No,APC (UTA),data is from Fall 2017.  ,51,19,70,4,2,6,3,0,3,39.96202,-75.200392,f8dfa75e-ec72-4849-a863-83e3914ac86e
-75.197036,39.960257,535,1020638E,City Spring 2018,10,Eastbound,29,20638,LAN38TSE,Lancaster Av & 38th St,Trolley,No,0,,No,APC (UTA),data is from Fall 2017.  ,21,16,37,3,3,6,2,0,2,39.960257,-75.197036,f2b5e743-74bf-4264-92d8-17825513203a
-75.193786,39.958565,536,1020639E,City Spring 2018,10,Eastbound,30,20639,LAN36TSE,Lancaster Av & 36th St,Trolley,No,0,,No,APC (UTA),data is from Fall 2017.  ,9,10,19,2,0,2,1,1,2,39.958565,-75.193786,ca70cb1d-13b7-4417-a819-a5305e70f92c
-75.194256,39.956304,537,1020640E,City Spring 2018,10,Eastbound,31,20640,36TMARSO,36th St & Market St,Trolley,No,0,,No,APC (UTA),data is from Fall 2017.  ,14,58,72,3,11,14,2,6,8,39.956304,-75.194256,66005bf0-b360-4593-a701-e2e9b5b13672
-75.193896,39.955461,538,1020641E,City Spring 2018,10,Eastbound,32,20641,36TPORSO,36th St Trolley Portal Station,Trolley,Yes,180,36PO,No,APC (UTA),data is from Fall 2017.  ,1,81,82,1,12,13,0,0,0,39.955461,-75.193896,8f0f66bc-5479-43dc-8e71-3a99a6898046
-75.189707,39.954787,539,1020642E,City Spring 2018,10,Eastbound,34,20642,33MAEAU,33rd St Trolley Station,Trolley,No,0,,No,APC (UTA),data is from Fall 2017.  ,1026,910,1936,288,190,478,133,86,219,39.954787,-75.189707,40c993db-09d9-489d-b0b7-9b27aaef26d5
-75.183571,39.95474,540,1020643E,City Spring 2018,10,Eastbound,35,20643,MA30EAU,30th St Trolley Station,Trolley,Yes,0,30MK,No,APC (UTA),data is from Fall 2017.  ,,,,,,,,,,39.95474,-75.183571,fc5b5c6f-fb49-496f-b2cd-5288f3c92443
-75.176791,39.953917,541,1020645E,City Spring 2018,10,Eastbound,36,20645,MA22EAU,22nd St Trolley Station,Trolley,No,0,,No,APC (UTA),data is from Fall 2017.  ,,,,,,,,,,39.953917,-75.176791,598aae81-2501-4e98-8306-3e6ede68c690
-75.171679,39.953268,542,1020646E,City Spring 2018,10,Eastbound,37,20646,MA19EAU,19th St Trolley Station,Trolley,Yes,0,19MK,No,APC (UTA),data is from Fall 2017.  ,,,,,,,,,,39.953268,-75.171679,d51c0b69-d9f3-4f4f-b908-6eaca7636b90
-75.165445,39.952484,543,1031140E,City Spring 2018,10,Eastbound,38,31140,MA15EAU,15th St Trolley Station,Trolley,No,0,,No,APC (UTA),data is from Fall 2017.  ,,,,,,,,,,39.952484,-75.165445,3cf74355-44b9-420c-823d-e3cc164d8d14
-75.162559,39.952532,544,10283E,City Spring 2018,10,Eastbound,39,283,JUNSTANO,13th St Trolley Station,Trolley,Yes,183,JUST,No,APC (UTA),data is from Fall 2017.  ,,,,,,,,,,39.952532,-75.162559,4bdf0ad1-9587-46c4-924e-964cd9388726
-75.162559,39.952532,545,10283W,City Spring 2018,10,Westbound,1,283,JUNSTANO,13th St Trolley Station,Trolley,Yes,183,JUST,No,APC (UTA),data is from Fall 2017.  ,,,,,,,,,,39.952532,-75.162559,37e8c96f-999e-42ed-a868-b13284162aa0
-75.165401,39.952698,546,1020659W,City Spring 2018,10,Westbound,2,20659,MA15WEU,15th St Trolley Station,Trolley,No,0,,No,APC (UTA),data is from Fall 2017.  ,,,,,,,,,,39.952698,-75.165401,5b7c4181-14b3-4bf5-a84f-eced94990703
-75.17165,39.953479,547,1020660W,City Spring 2018,10,Westbound,3,20660,MA19WEU,19th St Trolley Station,Trolley,No,0,,No,APC (UTA),data is from Fall 2017.  ,,,,,,,,,,39.953479,-75.17165,3c8f7ce2-51c5-40b2-8784-4913adaed544
-75.176759,39.954131,548,1020661W,City Spring 2018,10,Westbound,4,20661,MA22WEU,22nd St Trolley Station,Trolley,No,0,,No,APC (UTA),data is from Fall 2017.  ,,,,,,,,,,39.954131,-75.176759,a09bb8e0-08c7-4edc-9538-c3d817bdb687
-75.18354,39.954969,549,1020662W,City Spring 2018,10,Westbound,5,20662,MA30WEU,30th St Trolley Station ,Trolley,No,0,,No,APC (UTA),data is from Fall 2017.  ,,,,,,,,,,39.954969,-75.18354,101a427c-170b-40ed-805c-d9ef3a40fa99
-75.189686,39.954908,550,1020658W,City Spring 2018,10,Westbound,6,20658,33MAWEU,33rd St Trolley Station,Trolley,No,0,,No,APC (UTA),data is from Fall 2017.  ,,,,,,,,,,39.954908,-75.189686,b93ed0de-a717-4815-bf1a-2972b3287547
-75.194066,39.955591,551,10287W,City Spring 2018,10,Westbound,8,287,36TPORNO,36th St Trolley Portal Station,Trolley,Yes,180,36PO,No,APC (UTA),data is from Fall 2017.  ,,,,,,,,,,39.955591,-75.194066,2473b4b4-b7bc-45ba-a289-eaef4ddcdf57
-75.194084,39.956057,552,1020664W,City Spring 2018,10,Westbound,9,20664,36TMARNO,36th St & Market St,Trolley,No,0,,No,APC (UTA),data is from Fall 2017.  ,,,,,,,,,,39.956057,-75.194084,8ed5271e-01ba-44c1-9a04-80e3589a630f
-75.193558,39.958416,553,1020665W,City Spring 2018,10,Westbound,10,20665,36TLANNO,36th St & Lancaster Av,Trolley,No,0,,No,APC (UTA),data is from Fall 2017.  ,,,,,,,,,,39.958416,-75.193558,854435fd-8e40-439c-a32a-48bd75342a54
-75.195443,39.959619,554,1031488W,City Spring 2018,10,Westbound,11,31488,LANPOWNW,Lancaster Av & Powelton Av,Trolley,No,0,,No,APC (UTA),data is from Fall 2017.  ,,,,,,,,,,39.959619,-75.195443,ead2c617-e710-4ee2-b559-b34794e803e0
-75.196707,39.960255,555,1020663W,City Spring 2018,10,Westbound,12,20663,LAN38TNW,Lancaster Av & 38th St,Trolley,No,0,,No,APC (UTA),data is from Fall 2017.  ,,,,,,,,,,39.960255,-75.196707,36288862-34b2-423e-8851-56bac18b8944
-75.19984,39.961903,556,1020668W,City Spring 2018,10,Westbound,13,20668,LANSPRNW,Lancaster Av & Spring Garden St,Trolley,No,0,,No,APC (UTA),data is from Fall 2017.  ,,,,,,,,,,39.961903,-75.19984,a0cc7993-ddaa-4d9f-8449-020e385f1b86
-75.201636,39.962853,557,1020669W,City Spring 2018,10,Westbound,14,20669,LANHAVNW,Lancaster Av & Haverford Av,Trolley,Yes,178,40LA,No,APC (UTA),Data is from Fall 2017.,,,,,,,,,,39.962853,-75.201636,2867639c-1850-4cd3-a679-fc122d324245
-75.201936,39.957958,558,10279W,City Spring 2018,10,Westbound,15,279,40TFILSO,40th St & Filbert St,Trolley,Yes,179,40FI,No,APC (UTA),data is from Fall 2017.  ,3,0,3,,,,,,,39.957958,-75.201936,c01f5171-c4c3-40a9-ba24-79e0b3f282b2
-75.203325,39.963856,559,1020670W,City Spring 2018,10,Westbound,16,20670,LANWALNW,Lancaster Av & Wallace St,Trolley,No,0,,No,APC (UTA),data is from Fall 2017.  ,,,,,,,,,,39.963856,-75.203325,aa2d9f51-83e3-4a8e-8702-c64bff859c66
-75.205329,39.965111,560,1020671W,City Spring 2018,10,Westbound,17,20671,LAN41SNW,Lancaster Av & 41st St,Trolley,No,0,,No,APC (UTA),data is from Fall 2017.  ,,,,,,,,,,39.965111,-75.205329,f599d5ed-66e6-48e6-b545-e9b1376567fb
-75.207448,39.966424,561,1020672W,City Spring 2018,10,Westbound,18,20672,LAN42NNW,Lancaster Av & 42nd St,Trolley,No,0,,No,APC (UTA),data is from Fall 2017.  ,5,4,9,,,,,,,39.966424,-75.207448,616a27de-725d-494a-9b81-279154e290c2
-75.209431,39.967657,562,1020673W,City Spring 2018,10,Westbound,19,20673,LANPARNW,Lancaster Av & Parrish St,Trolley,No,0,,No,APC (UTA),data is from Fall 2017.  ,0,5,5,,,,,,,39.967657,-75.209431,5f2f67e9-4882-4b48-8928-f86a60999021
-75.210908,39.968573,563,1020674W,City Spring 2018,10,Westbound,20,20674,LANOGDNW,Lancaster Av & Ogden St,Trolley,No,0,,No,APC (UTA),data is from Fall 2017.  ,1,3,4,,,,,,,39.968573,-75.210908,61e6c7de-5eef-40bb-a78f-dac5bad6eea8
-75.212102,39.969316,564,1020675W,City Spring 2018,10,Westbound,21,20675,LANWESNW,Lancaster Av & Westminster St,Trolley,No,0,,No,APC (UTA),data is from Fall 2017.  ,0,2,2,,,,,,,39.969316,-75.212102,592df2cd-38b2-4239-aedf-dd2de53ed54a
-75.215922,39.971627,565,1020677W,City Spring 2018,10,Westbound,22,20677,LAN47TNW,Lancaster Av & 47th St,Trolley,No,0,,No,APC (UTA),data is from Fall 2017.  ,0,0,0,,,,,,,39.971627,-75.215922,93f8a120-6e0e-4990-aaad-6a296172aeb9
-75.216985,39.972261,566,10290W,City Spring 2018,10,Westbound,23,290,LAN48TNW,Lancaster Av & 48th St,Trolley,Yes,184,48LA,No,APC (UTA),data is from Fall 2017.  ,0,3,3,,,,,,,39.972261,-75.216985,2e7b50a3-97b9-4edd-80d9-f2efbb5ab8bb
-75.21941,39.973727,567,1020678W,City Spring 2018,10,Westbound,24,20678,LAN49TNW,Lancaster Av & 49th St,Trolley,No,0,,No,APC (UTA),data is from Fall 2017.  ,0,1,1,,,,,,,39.973727,-75.21941,b0bcc4f4-2507-4962-9c4b-a9c221e0a676
-75.222326,39.975245,568,1020679W,City Spring 2018,10,Westbound,25,20679,LAN50TNW,Lancaster Av & 50th St,Trolley,No,0,,No,APC (UTA),data is from Fall 2017.  ,0,0,0,,,,,,,39.975245,-75.222326,f092349b-2331-4567-98d6-1ac5cee06ec8
-75.226547,39.9772,569,1020681W,City Spring 2018,10,Westbound,26,20681,LAN52NNW,Lancaster Av & 52nd St,Trolley,Yes,176,52LN,No,APC (UTA),data is from Fall 2017.  ,1,8,9,,,,,,,39.9772,-75.226547,bb0d0c8a-06c3-4b21-b46d-7030b550e16f
-75.229745,39.977144,570,1020683W,City Spring 2018,10,Westbound,27,20683,LAN54TWE,Lansdowne Av & 54th St,Trolley,No,0,,No,APC (UTA),data is from Fall 2017.  ,0,1,1,,,,,,,39.977144,-75.229745,c0c2506b-8aa9-4728-9ddc-aab0ebef9750
-75.231704,39.976927,571,1020684W,City Spring 2018,10,Westbound,28,20684,LAN55TWE,Lansdowne Av & 55th St,Trolley,No,0,,No,APC (UTA),data is from Fall 2017.  ,0,4,4,,,,,,,39.976927,-75.231704,35d13c78-7fc2-410c-a056-5414960e917b
-75.2336,39.976717,572,1020685W,City Spring 2018,10,Westbound,29,20685,LAN56TWE,Lansdowne Av & 56th St,Trolley,No,0,,No,APC (UTA),data is from Fall 2017.  ,0,0,0,,,,,,,39.976717,-75.2336,7c87bb5e-eb9c-4f7f-b1ee-e50fb51345a6
-75.235155,39.976545,573,1020686W,City Spring 2018,10,Westbound,30,20686,LAN57TWE,Lansdowne Av & 57th St,Trolley,No,0,,No,APC (UTA),data is from Fall 2017.  ,0,4,4,,,,,,,39.976545,-75.235155,cf95bb68-b3ed-423d-b664-73fd5221d023
-75.23675,39.976363,574,1020687W,City Spring 2018,10,Westbound,31,20687,LAN58TWE,Lansdowne Av & 58th St,Trolley,No,0,,No,APC (UTA),data is from Fall 2017.  ,0,1,1,,,,,,,39.976363,-75.23675,8de8e6ba-1188-4268-b89a-fbf4c5793675
-75.238485,39.97618,575,1020688W,City Spring 2018,10,Westbound,32,20688,LAN59TWE,Lansdowne Av & 59th St,Trolley,No,0,,No,APC (UTA),data is from Fall 2017.  ,1,3,4,0,0,0,,,,39.97618,-75.238485,0214fcfd-d317-45cc-b4a5-dda647cb52a5
-75.240149,39.975991,576,1020689W,City Spring 2018,10,Westbound,33,20689,LAN60TWE,Lansdowne Av & 60th St,Trolley,Yes,426,,No,APC (UTA),data is from Fall 2017.  ,1,2,3,,,,,,,39.975991,-75.240149,4789fb51-a69d-4dff-bc1e-09c2f1ce3b11
-75.241725,39.975822,577,1020690W,City Spring 2018,10,Westbound,34,20690,LAN61SWE,Lansdowne Av & 61st St,Trolley,No,0,,No,APC (UTA),data is from Fall 2017.  ,1,1,2,,,,,,,39.975822,-75.241725,98f6af85-16ca-4706-9e84-529b4fe8671f
-75.24349,39.97562,578,1020691W,City Spring 2018,10,Westbound,35,20691,LAN62NWE,Lansdowne Av & 62nd St,Trolley,No,0,,No,APC (UTA),data is from Fall 2017.  ,0,0,0,,,,,,,39.97562,-75.24349,6d358c3e-c17c-4d09-b85d-b89e0e11b423
-75.2455,39.975749,579,1020692W,City Spring 2018,10,Westbound,36,20692,63RLANNO,63rd St & Lansdowne Av - FS,Trolley,No,0,,No,APC (UTA),data is from Fall 2017.  ,0,7,7,0,0,0,,,,39.975749,-75.2455,1643a780-30f6-4ca3-9365-dabeadfbf4ce
-75.245951,39.978209,580,1020693W,City Spring 2018,10,Westbound,37,20693,63RJEFNO,63rd St & Jefferson St,Trolley,No,0,,No,APC (UTA),data is from Fall 2017.  ,3,4,7,,,,,,,39.978209,-75.245951,33c0c38b-71e5-4f6f-9426-d6c1a310e184
-75.246401,39.980583,581,1020695W,City Spring 2018,10,Westbound,38,20695,63RCOLNO,63rd St & Columbia Av ,Trolley,No,0,,No,APC (UTA),data is from Fall 2017.  ,0,0,0,,,,,,,39.980583,-75.246401,dbabe80e-2d5a-481b-8ee6-c6771d5a0a39
-75.245893,39.983722,582,1031294W,City Spring 2018,10,Westbound,39,31294,MALLOOSW,Malvern Av & 63rd St Loop - 2 onsite,Trolley,Yes,174,63ML,No,APC (UTA),data is from Fall 2017.  ,0,8,8,,,,,,,39.983722,-75.245893,bec33750-9b71-484f-8e7b-9de0637a055f
-75.239319,39.898668,583,36612E,City Fall 2017,36,Eastbound,1,612,EASLOOSO,Island Av & 80th St Eastwick Loop ,Trolley,Yes,366,80LO,No,APC (UTA),Data is from Fall 2017.  Route was bused in spring 2018.,267,0,267,65,0,65,106,0,106,39.898668,-75.239319,ff3d0428-b60e-42cb-a79b-a0e9b4861674
-75.239231,39.899425,584,36605E,City Fall 2017,36,Eastbound,2,605,ISLSUFNO,Island Av & Suffolk Av - MBNS,Trolley,No,0,,No,APC (UTA),Data is from Fall 2017.  Route was bused in spring 2018.,,,,,,,,,,39.899425,-75.239231,afdffb87-bb3f-4df5-afba-0e41e034ac55
-75.240457,39.904296,585,3620927E,City Fall 2017,36,Eastbound,3,20927,ISLLINNW,Island Av & Lindbergh Blvd - FS,Trolley,No,0,,No,APC (UTA),Data is from Fall 2017.  Route was bused in spring 2018.,426,11,437,138,5,143,190,5,195,39.904296,-75.240457,293a139e-12ef-4c62-be42-ab400a7a8455
-75.241396,39.907262,586,3620928E,City Fall 2017,36,Eastbound,4,20928,ISL76TNW,Island Av & 76th St,Trolley,No,0,,No,APC (UTA),Data is from Fall 2017.  Route was bused in spring 2018.,112,7,119,25,3,28,43,2,45,39.907262,-75.241396,5172e1ab-6097-4df9-b79b-9c9b7b2f83ad
-75.242029,39.909222,587,3620929E,City Fall 2017,36,Eastbound,5,20929,ISLTANNW,Island Av & Tanager St - FS,Trolley,No,0,,No,APC (UTA),Data is from Fall 2017.  Route was bused in spring 2018.,33,2,35,10,1,11,9,2,11,39.909222,-75.242029,c5833095-707e-4303-9775-853ed92f1cff
-75.242613,39.9111,588,3620930E,City Fall 2017,36,Eastbound,6,20930,ISLBUINW,Island Av & Buist Av,Trolley,No,0,,No,APC (UTA),Data is from Fall 2017.  Route was bused in spring 2018.,153,21,174,38,6,44,47,11,58,39.9111,-75.242613,3f100c13-67cc-498a-b21b-ed8509964212
-75.242717,39.913407,589,3620931E,City Fall 2017,36,Eastbound,7,20931,ELMISLNE,Elmwood Av & Island Av - MBFS,Trolley,No,0,,No,APC (UTA),Data is from Fall 2017.  Route was bused in spring 2018.,177,26,203,50,13,63,58,12,70,39.913407,-75.242717,bb30ad1d-a10f-4086-8ccf-c6f6b1b23fe6
-75.242636,39.914019,590,36611E,City Fall 2017,36,Eastbound,8,611,ELMLOOWE,Elmwood Loop,Trolley,Yes,367,ELLO,No,APC (UTA),Data is from Fall 2017.  Route was bused in spring 2018.,1,0,1,,,,,,,39.914019,-75.242636,be7eb9ba-eb6a-4b59-b103-7e62657d9ef0
-75.241762,39.914078,591,3620932E,City Fall 2017,36,Eastbound,9,20932,ELM73RNE,Elmwood Av & 73rd St,Trolley,Yes,368,EW73,No,APC (UTA),Data is from Fall 2017.  Route was bused in spring 2018.,196,13,209,58,6,64,70,4,74,39.914078,-75.241762,098cfb09-5db9-4b96-942a-1acbef871ad8
-75.240365,39.915038,592,3620933E,City Fall 2017,36,Eastbound,10,20933,ELM72NNE,Elmwood Av & 72nd St,Trolley,No,0,,No,APC (UTA),Data is from Fall 2017.  Route was bused in spring 2018.,105,12,117,24,3,27,16,5,21,39.915038,-75.240365,17050c44-94a8-4921-8dee-482d413344e3
-75.239002,39.916006,593,3620934E,City Fall 2017,36,Eastbound,11,20934,ELM71SNE,Elmwood Av & 71st St,Trolley,No,0,,No,APC (UTA),Data is from Fall 2017.  Route was bused in spring 2018.,209,21,230,55,10,65,52,12,64,39.916006,-75.239002,d4772f4a-e0a2-41ce-8218-e0e76e1e1bef
-75.237453,39.917106,594,3620935E,City Fall 2017,36,Eastbound,12,20935,ELM70TNE,Elmwood Av & 70th St,Trolley,No,0,,No,APC (UTA),Data is from Fall 2017.  Route was bused in spring 2018.,265,31,296,68,8,76,57,12,69,39.917106,-75.237453,b8bdd8ab-1dea-45b6-b1e5-27f69193bf3f
-75.236059,39.918079,595,3620936E,City Fall 2017,36,Eastbound,13,20936,ELM69TNE,Elmwood Av & 69th St,Trolley,No,0,,No,APC (UTA),Data is from Fall 2017.  Route was bused in spring 2018.,151,16,167,48,5,53,31,8,39,39.918079,-75.236059,0d5c3b07-b64e-4797-8f78-c100f2a23a74
-75.234425,39.91925,596,3620937E,City Fall 2017,36,Eastbound,14,20937,ELM68TNE,Elmwood Av & 68th St,Trolley,No,0,,No,APC (UTA),Data is from Fall 2017.  Route was bused in spring 2018.,141,18,159,39,5,44,40,5,45,39.91925,-75.234425,7d16c317-f195-4f02-9ac0-6fcbe3060011
-75.232918,39.920303,597,3620938E,City Fall 2017,36,Eastbound,15,20938,ELM67TNE,Elmwood Av & 67th St,Trolley,No,0,,No,APC (UTA),Data is from Fall 2017.  Route was bused in spring 2018.,172,40,212,46,9,55,59,12,71,39.920303,-75.232918,44753ea2-92fb-4100-a2e7-278f15385780
-75.231587,39.921236,598,3620939E,City Fall 2017,36,Eastbound,16,20939,ELM66TNE,Elmwood Av & 66th St,Trolley,Yes,0,66EL,No,APC (UTA),Data is from Fall 2017.  Route was bused in spring 2018.,236,47,283,48,13,61,70,17,87,39.921236,-75.231587,879bb5b5-3a2d-4dd1-9787-e93330d33a4f
-75.23037,39.92209,599,3620940E,City Fall 2017,36,Eastbound,17,20940,ELM65TNE,Elmwood Av & 65th St,Trolley,No,0,,No,APC (UTA),Data is from Fall 2017.  Route was bused in spring 2018.,204,52,256,73,17,90,74,17,91,39.92209,-75.23037,04bea0a1-d6ea-4aad-b76e-a4140ba821c4
-75.229126,39.922972,600,3620941E,City Fall 2017,36,Eastbound,18,20941,ELM64TNE,Elmwood Av & 64th St,Trolley,No,0,,No,APC (UTA),Data is from Fall 2017.  Route was bused in spring 2018.,109,16,125,28,7,35,30,7,37,39.922972,-75.229126,0a2e4573-f2ee-4c0d-980d-07f2a97d34d0
-75.227764,39.923934,601,3620942E,City Fall 2017,36,Eastbound,19,20942,ELM63RNE,Elmwood Av & 63rd St,Trolley,No,0,,No,APC (UTA),Data is from Fall 2017.  Route was bused in spring 2018.,147,42,189,41,15,56,51,15,66,39.923934,-75.227764,32abe57c-0e16-4f33-9d9c-496697b5c2ce
-75.226513,39.924815,602,3620943E,City Fall 2017,36,Eastbound,20,20943,ELM62NNE,Elmwood Av & 62nd St,Trolley,Yes,369,62EL,No,APC (UTA),Data is from Fall 2017.  Route was bused in spring 2018.,233,243,476,74,61,135,77,66,143,39.924815,-75.226513,49a2ff0f-eec8-4e11-818b-f003d14f672a
-75.224863,39.925948,603,3620944E,City Fall 2017,36,Eastbound,21,20944,ELM61SNE,Elmwood Av & 61st St,Trolley,No,0,,No,APC (UTA),Data is from Fall 2017.  Route was bused in spring 2018.,172,44,216,57,8,65,47,12,59,39.925948,-75.224863,57f82786-d3b6-4564-84e0-b829c7754211
-75.223893,39.926635,604,3620945E,City Fall 2017,36,Eastbound,22,20945,ELMEDGNE,Elmwood Av & Edgewood St,Trolley,No,0,,No,APC (UTA),Data is from Fall 2017.  Route was bused in spring 2018.,39,11,50,6,0,6,26,2,28,39.926635,-75.223893,74b6dcef-c77b-476f-a18d-e35efcb76043
-75.221994,39.927972,605,3620946E,City Fall 2017,36,Eastbound,23,20946,ELM59TNE,Elmwood Av & 59th St,Trolley,No,0,,No,APC (UTA),Data is from Fall 2017.  Route was bused in spring 2018.,42,34,76,10,6,16,10,4,14,39.927972,-75.221994,4dbb8337-21bb-4b18-bc5b-97075e3d2652
-75.220604,39.928938,606,3620947E,City Fall 2017,36,Eastbound,24,20947,ELM58TNE,Elmwood Av & 58th St,Trolley,No,0,,No,APC (UTA),Data is from Fall 2017.  Route was bused in spring 2018.,51,25,76,19,5,24,14,6,20,39.928938,-75.220604,687f9824-95ca-448a-885c-2631a6649a39
-75.219238,39.929914,607,3620948E,City Fall 2017,36,Eastbound,25,20948,ELM57TNE,Elmwood Av & 57th St,Trolley,No,0,,No,APC (UTA),Data is from Fall 2017.  Route was bused in spring 2018.,104,46,150,36,10,46,43,9,52,39.929914,-75.219238,2f500e76-4aab-4f96-a5e4-88db449f8708
-75.217754,39.930962,608,3620949E,City Fall 2017,36,Eastbound,26,20949,ELM56TNE,Elmwood Av & 56th St,Trolley,No,0,,No,APC (UTA),Data is from Fall 2017.  Route was bused in spring 2018.,58,27,85,24,5,29,29,12,41,39.930962,-75.217754,0eadf1b9-48e3-4d50-aa06-732ceae07813
-75.216196,39.932395,609,3620950E,City Fall 2017,36,Eastbound,27,20950,LINWHENE,Lindbergh Blvd & Wheeler St,Trolley,No,0,,No,APC (UTA),Data is from Fall 2017.  Route was bused in spring 2018.,138,53,191,49,11,60,57,17,74,39.932395,-75.216196,75709d59-6eb3-44bf-bfb5-4b5c8eed24db
-75.215512,39.933406,610,3620951E,City Fall 2017,36,Eastbound,28,20951,LIN54TNE,Lindbergh Blvd & 54th St,Trolley,No,0,,No,APC (UTA),Data is from Fall 2017.  Route was bused in spring 2018.,116,59,175,31,13,44,51,24,75,39.933406,-75.215512,4d750a17-f284-4627-a112-56fbe8405999
-75.214301,39.935146,611,3620952E,City Fall 2017,36,Eastbound,29,20952,LIN53RNE,Lindbergh Blvd & 53rd St,Trolley,No,0,,No,APC (UTA),Data is from Fall 2017.  Route was bused in spring 2018.,16,9,25,8,4,12,7,0,7,39.935146,-75.214301,f407fc02-d40e-46dd-b34f-041fa4b4e5ec
-75.213414,39.936135,612,3620953E,City Fall 2017,36,Eastbound,30,20953,GRA52NNE,Grays Av & 52nd St,Trolley,No,0,,No,APC (UTA),Data is from Fall 2017.  Route was bused in spring 2018.,3,1,4,2,0,2,3,0,3,39.936135,-75.213414,566c329d-7bc9-4a62-aa18-c786882e8dec
-75.212226,39.93699,613,3620954E,City Fall 2017,36,Eastbound,31,20954,GRA51SNE,Grays Av & 51st St,Trolley,No,0,,No,APC (UTA),Data is from Fall 2017.  Route was bused in spring 2018.,8,2,10,2,1,3,2,0,2,39.93699,-75.212226,a90a8fa0-91e2-4808-90b3-e17fa3defa3d
-75.210239,39.938559,614,3621201E,City Fall 2017,36,Eastbound,32,21201,GRA49TNE,Grays Av & 49th St,Trolley,No,0,,No,APC (UTA),Data is from Fall 2017.  Route was bused in spring 2018.,8,2,10,0,0,0,0,0,0,39.938559,-75.210239,51dabdf5-bf67-4be6-9023-61123b6eb577
-75.211246,39.939831,615,3620955E,City Fall 2017,36,Eastbound,33,20955,49TPASNW,49th St & Paschall Av,Trolley,No,0,,No,APC (UTA),Data is from Fall 2017.  Route was bused in spring 2018.,13,80,93,3,18,21,2,19,21,39.939831,-75.211246,62ea348e-05a4-4045-9e48-776ed80cc03c
-75.212436,39.940825,616,3620957E,City Fall 2017,36,Eastbound,34,20957,49TWOONW,49th St & Woodland Av,Trolley,Yes,187,49WD,No,APC (UTA),Data is from Fall 2017.  Route was bused in spring 2018.,140,335,475,50,110,160,33,131,164,39.940825,-75.212436,cfbdbc6b-4449-44cb-aa0d-a29caeaf1887
-75.211712,39.94192,617,3620726E,City Fall 2017,36,Eastbound,35,20726,WOO48TNE,Woodland Av & 48th St,Trolley,No,0,,No,APC (UTA),Data is from Fall 2017.  Route was bused in spring 2018.,30,11,41,4,8,12,5,1,6,39.94192,-75.211712,713c115a-32c7-4d82-a6da-b114df175e6d
-75.210826,39.94321,618,3620958E,City Fall 2017,36,Eastbound,36,20958,WOO47TNE,Woodland Av & 47th St,Trolley,No,0,,No,APC (UTA),Data is from Fall 2017.  Route was bused in spring 2018.,55,21,76,18,7,25,11,7,18,39.94321,-75.210826,deaee666-1a82-4889-8980-dc4ddd1846fe
-75.209763,39.944316,619,3620727E,City Fall 2017,36,Eastbound,37,20727,WOO46TNE,Woodland Av & 46th St,Trolley,No,0,,No,APC (UTA),Data is from Fall 2017.  Route was bused in spring 2018.,69,14,83,24,7,31,22,5,27,39.944316,-75.209763,088c303c-82d4-4b06-a9cb-7b88a07cc286
-75.208639,39.945304,620,3620728E,City Fall 2017,36,Eastbound,38,20728,WOO45TNE,Woodland Av & 45th St,Trolley,No,0,,No,APC (UTA),Data is from Fall 2017.  Route was bused in spring 2018.,45,22,67,9,12,21,10,7,17,39.945304,-75.208639,26b066aa-6532-47e2-a65a-f567ce3ba03e
-75.207041,39.946665,621,3620729E,City Fall 2017,36,Eastbound,39,20729,WOO42NNE,Woodland Av & 42nd St,Trolley,No,0,,No,APC (UTA),Data is from Fall 2017.  Route was bused in spring 2018.,69,17,86,9,2,11,10,8,18,39.946665,-75.207041,32018dca-7bf5-41a0-b76a-15540bad5e75
-75.205574,39.948063,622,3620735E,City Fall 2017,36,Eastbound,40,20735,WOO41SNE,Woodland Av & 41st St,Trolley,No,0,,No,APC (UTA),Data is from Fall 2017.  Route was bused in spring 2018.,11,2,13,2,0,2,1,3,4,39.948063,-75.205574,c09bf4a9-219c-4044-89be-570c8346ba14
-75.204963,39.948503,623,3620925E,City Fall 2017,36,Eastbound,41,20925,WOOCHENE,Woodland Av & Chester Av,Trolley,No,0,,No,APC (UTA),Data is from Fall 2017.  Route was bused in spring 2018.,1,1,2,0,0,0,0,2,2,39.948503,-75.204963,a060eb01-08fc-499e-82d1-b24bff595a9f
-75.203332,39.949409,624,3620804E,City Fall 2017,36,Eastbound,42,20804,40TPORNE,40th St Trolley Portal,Trolley,Yes,188,40PO,No,APC (UTA),Data is from Fall 2017.  Route was bused in spring 2018.,184,149,333,54,69,123,91,44,135,39.949409,-75.203332,81f77a33-7383-427b-8cde-4b4c4df9554e
-75.202021,39.957259,625,3621248E,City Fall 2017,36,Eastbound,43,21248,40TMARSO,40th St & Market St,Trolley,Yes,189,40MK,No,APC (UTA),Data is from Fall 2017.  Route was bused in spring 2018.,,,,,,,0,0,0,39.957259,-75.202021,235b45e3-18e0-4098-8acc-16acc860590f
-75.197247,39.950914,626,3620731E,City Fall 2017,36,Eastbound,44,20731,SP37NEU,37th St Trolley Station,Trolley,No,0,,No,APC (UTA),Data is from Fall 2017.  Route was bused in spring 2018.,163,125,288,16,14,30,32,23,55,39.950914,-75.197247,b2f282f0-1237-485c-b5f1-9f059a09d780
-75.194505,39.953848,627,3620732E,City Fall 2017,36,Eastbound,45,20732,36SANOU,36th St Trolley Station,Trolley,No,0,,No,APC (UTA),Data is from Fall 2017.  Route was bused in spring 2018.,215,85,300,26,16,42,28,20,48,39.953848,-75.194505,9f0d1778-e3a8-46ce-b2da-4e607e5f079e
-75.189707,39.954787,628,3620642E,City Fall 2017,36,Eastbound,46,20642,33MAEAU,33rd St Trolley Station,Trolley,No,0,,No,APC (UTA),Data is from Fall 2017.  Route was bused in spring 2018.,156,95,251,20,20,40,34,26,60,39.954787,-75.189707,251edcd2-0139-49b1-87c7-63ab9b2137b5
-75.183571,39.95474,629,3620643E,City Fall 2017,36,Eastbound,47,20643,MA30EAU,30th St Trolley Station,Trolley,Yes,0,30MK,No,APC (UTA),Data is from Fall 2017.  Route was bused in spring 2018.,138,217,355,32,24,56,65,53,118,39.95474,-75.183571,33e693bd-dde4-48bb-9340-8d61fd4215c4
-75.176791,39.953917,630,3620645E,City Fall 2017,36,Eastbound,48,20645,MA22EAU,22nd St Trolley Station,Trolley,No,0,,No,APC (UTA),Data is from Fall 2017.  Route was bused in spring 2018.,234,748,982,38,210,248,57,194,251,39.953917,-75.176791,caef552f-dc0a-4b54-815d-3d968c7c9bbd
-75.171679,39.953268,631,3620646E,City Fall 2017,36,Eastbound,49,20646,MA19EAU,19th St Trolley Station,Trolley,Yes,0,19MK,No,APC (UTA),Data is from Fall 2017.  Route was bused in spring 2018.,185,499,684,32,129,161,60,194,254,39.953268,-75.171679,77b5da39-58e0-4b7d-b8f3-1d0b8f3c4aa7
-75.165445,39.952484,632,3631140E,City Fall 2017,36,Eastbound,50,31140,MA15EAU,15th St Trolley Station,Trolley,No,0,,No,APC (UTA),Data is from Fall 2017.  Route was bused in spring 2018.,320,1786,2106,65,465,530,77,547,624,39.952484,-75.165445,eb0c11de-a407-4d24-9393-c9df53fd0f64
-75.162559,39.952532,633,36283E,City Fall 2017,36,Eastbound,51,283,JUNSTANO,13th St Trolley Station,Trolley,Yes,183,JUST,No,APC (UTA),Data is from Fall 2017.  Route was bused in spring 2018.,0,1165,1165,0,303,303,0,294,294,39.952532,-75.162559,cc3d5f83-689e-4d7b-8ce4-f72297cd940c
-75.162559,39.952532,634,36283W,City Fall 2017,36,Westbound,1,283,JUNSTANO,13th St Trolley Station,Trolley,Yes,183,JUST,No,APC (UTA),Data is from Fall 2017.  Route was bused in spring 2018.,3389,0,3389,789,0,789,895,0,895,39.952532,-75.162559,bd1cda14-4946-43c6-9864-d24dc1b44084
-75.165401,39.952698,635,3620659W,City Fall 2017,36,Westbound,2,20659,MA15WEU,15th St Trolley Station,Trolley,No,0,,No,APC (UTA),Data is from Fall 2017.  Route was bused in spring 2018.,786,604,1390,194,130,324,285,145,430,39.952698,-75.165401,fb46979d-a468-43d9-b0d6-452556199a33
-75.17165,39.953479,636,3620660W,City Fall 2017,36,Westbound,3,20660,MA19WEU,19th St Trolley Station,Trolley,No,0,,No,APC (UTA),Data is from Fall 2017.  Route was bused in spring 2018.,157,123,280,65,41,106,52,33,85,39.953479,-75.17165,14ba0617-2ebb-4c44-9097-824d4ea526dc
-75.176759,39.954131,637,3620661W,City Fall 2017,36,Westbound,4,20661,MA22WEU,22nd St Trolley Station,Trolley,No,0,,No,APC (UTA),Data is from Fall 2017.  Route was bused in spring 2018.,115,249,364,24,27,51,19,53,72,39.954131,-75.176759,87ba8f69-d50d-49ec-b7f4-23a08edf5e36
-75.18354,39.954969,638,3620662W,City Fall 2017,36,Westbound,5,20662,MA30WEU,30th St Trolley Station ,Trolley,No,0,,No,APC (UTA),Data is from Fall 2017.  Route was bused in spring 2018.,133,304,437,56,72,128,58,41,99,39.954969,-75.18354,ac5163c6-aaa0-4ecd-81bc-1aba74570a06
-75.189686,39.954908,639,3620658W,City Fall 2017,36,Westbound,6,20658,33MAWEU,33rd St Trolley Station,Trolley,No,0,,No,APC (UTA),Data is from Fall 2017.  Route was bused in spring 2018.,98,131,229,17,8,25,13,39,52,39.954908,-75.189686,6ed83759-bb6e-438b-b28a-66d48b8f1da6
-75.194664,39.953868,640,3620733W,City Fall 2017,36,Westbound,7,20733,36SASOU,36th St Trolley Station,Trolley,No,0,,No,APC (UTA),Data is from Fall 2017.  Route was bused in spring 2018.,80,124,204,5,7,12,6,6,12,39.953868,-75.194664,2093cb8c-1ce1-4773-9653-1755afa1b5de
-75.197306,39.951048,641,3620734W,City Fall 2017,36,Westbound,8,20734,SP37SWU,37th St Trolley Station ,Trolley,No,0,,No,APC (UTA),Data is from Fall 2017.  Route was bused in spring 2018.,58,57,115,0,4,4,11,20,31,39.951048,-75.197306,00b07028-46d1-4205-a9c0-9262e1d72224
-75.202021,39.957259,642,3621248W,City Fall 2017,36,Westbound,9,21248,40TMARSO,40th St & Market St,Trolley,Yes,189,40MK,No,APC (UTA),Data is from Fall 2017.  Route was bused in spring 2018.,,,,,,,,,,39.957259,-75.202021,1ee9169c-55f6-41c1-9fd2-195e8cb7263c
-75.203641,39.949289,643,36301W,City Fall 2017,36,Westbound,10,301,40TPORSW,40th St Trolley Portal,Trolley,Yes,188,40PO,No,APC (UTA),Data is from Fall 2017.  Route was bused in spring 2018.,227,160,387,72,46,118,108,60,168,39.949289,-75.203641,68565972-e46b-472a-965d-14e86b070c46
-75.204987,39.948604,644,3620805W,City Fall 2017,36,Westbound,11,20805,WOOCHESW,Woodland Av & Chester Av,Trolley,No,0,,No,APC (UTA),Data is from Fall 2017.  Route was bused in spring 2018.,14,29,43,4,9,13,2,14,16,39.948604,-75.204987,ed865e7a-4041-4971-ac07-accf7506056e
-75.206889,39.94704,645,3620736W,City Fall 2017,36,Westbound,12,20736,WOO42NSW,Woodland Av & 42nd St,Trolley,No,0,,No,APC (UTA),Data is from Fall 2017.  Route was bused in spring 2018.,16,54,70,2,12,14,2,19,21,39.94704,-75.206889,920ea314-c912-40f3-81c3-3a5890086a83
-75.208403,39.945793,646,3620737W,City Fall 2017,36,Westbound,13,20737,WOO43RSW,Woodland Av & 43rd St,Trolley,No,0,,No,APC (UTA),Data is from Fall 2017.  Route was bused in spring 2018.,19,50,69,5,8,13,3,7,10,39.945793,-75.208403,60e4fe67-9a43-4b61-bc32-d6efde65c6e6
-75.209741,39.944548,647,3620739W,City Fall 2017,36,Westbound,14,20739,WOO46TSW,Woodland Av & 46th St,Trolley,No,0,,No,APC (UTA),Data is from Fall 2017.  Route was bused in spring 2018.,26,92,118,6,28,34,12,38,50,39.944548,-75.209741,c9d98b69-8cce-474a-ba67-6b72f9bf0e3a
-75.211577,39.942408,648,3620740W,City Fall 2017,36,Westbound,15,20740,WOO48TSW,Woodland Av & 48th St,Trolley,No,0,,No,APC (UTA),Data is from Fall 2017.  Route was bused in spring 2018.,20,56,76,4,11,15,4,15,19,39.942408,-75.211577,194b64db-8c64-4c5c-ac84-c97aa2633a70
-75.21259,39.940966,649,36302W,City Fall 2017,36,Westbound,16,302,WOO49TSW,Woodland Av & 49th St,Trolley,Yes,187,49WOL,No,APC (UTA),Data is from Fall 2017.  Route was bused in spring 2018.,344,160,504,105,60,165,111,51,162,39.940966,-75.21259,ad62b44a-4e51-4554-8db5-f0d5d3b75220
-75.211658,39.939965,650,3620897W,City Fall 2017,36,Westbound,17,20897,49TPASSE,49th St & Paschall Av,Trolley,No,0,,No,APC (UTA),Data is from Fall 2017.  Route was bused in spring 2018.,45,26,71,7,10,17,8,5,13,39.939965,-75.211658,3ea08bad-80d5-4e67-b720-ab980ec42941
-75.21225,39.937184,651,3630595W,City Fall 2017,36,Westbound,18,30595,GRA51SSW,Grays Av & 51st St,Trolley,No,0,,No,APC (UTA),Data is from Fall 2017.  Route was bused in spring 2018.,3,10,13,3,8,11,1,1,2,39.937184,-75.21225,f91ac5f5-b5bd-4c87-abcc-9fd146337d14
-75.213721,39.936144,652,3620899W,City Fall 2017,36,Westbound,19,20899,GRALINSW,Grays Av & Lindbergh Blvd,Trolley,No,0,,No,APC (UTA),Data is from Fall 2017.  Route was bused in spring 2018.,4,2,6,0,0,0,0,0,0,39.936144,-75.213721,12802757-2ae4-4e13-ab3f-ca7a50e0bde9
-75.214429,39.935284,653,3620900W,City Fall 2017,36,Westbound,20,20900,LIN53RSW,Lindbergh Blvd & Grays Av - FS,Trolley,No,0,,No,APC (UTA),Data is from Fall 2017.  Route was bused in spring 2018.,4,33,37,2,11,13,0,10,10,39.935284,-75.214429,69a6a04e-8409-45e7-9938-61a22ab55c32
-75.215579,39.933588,654,3620901W,City Fall 2017,36,Westbound,21,20901,LIN54TSW,Lindbergh Blvd & 54th St,Trolley,No,0,,No,APC (UTA),Data is from Fall 2017.  Route was bused in spring 2018.,66,225,291,14,77,91,25,96,121,39.933588,-75.215579,88f90bd4-d552-45ef-96ee-57a7ea62bd94
-75.217739,39.931178,655,3620902W,City Fall 2017,36,Westbound,22,20902,ELM56TSW,Elmwood Av & 56th St,Trolley,No,0,,No,APC (UTA),Data is from Fall 2017.  Route was bused in spring 2018.,48,101,149,10,31,41,10,36,46,39.931178,-75.217739,17a92a9a-8816-4bca-b4cd-3f912dc1bf13
-75.219239,39.930125,656,3620903W,City Fall 2017,36,Westbound,23,20903,ELM57TSW,Elmwood Av & 57th St,Trolley,No,0,,No,APC (UTA),Data is from Fall 2017.  Route was bused in spring 2018.,46,112,158,16,33,49,11,42,53,39.930125,-75.219239,95d24fbf-eabb-4c17-ac8a-8a8f3bd1d873
-75.220587,39.929155,657,3620904W,City Fall 2017,36,Westbound,24,20904,ELM58TSW,Elmwood Av & 58th St,Trolley,No,0,,No,APC (UTA),Data is from Fall 2017.  Route was bused in spring 2018.,25,58,83,16,20,36,8,19,27,39.929155,-75.220587,e9b27893-fc2b-4c79-8cfe-c769f15ac6e1
-75.221968,39.928194,658,3620905W,City Fall 2017,36,Westbound,25,20905,ELM59TSW,Elmwood Av & 59th St,Trolley,No,0,,No,APC (UTA),Data is from Fall 2017.  Route was bused in spring 2018.,24,45,69,4,2,6,4,6,10,39.928194,-75.221968,0efc5076-17cd-42ec-9bc9-74fc8e223260
-75.223861,39.92687,659,3620906W,City Fall 2017,36,Westbound,26,20906,ELMEDGSW,Elmwood Av & Edgewood Av,Trolley,No,0,,No,APC (UTA),Data is from Fall 2017.  Route was bused in spring 2018.,10,53,63,0,11,11,4,19,23,39.92687,-75.223861,448d68be-f6f5-4492-b101-1ee9ea24ac7c
-75.224846,39.92618,660,3620907W,City Fall 2017,36,Westbound,27,20907,ELM61SSW,Elmwood Av & 61st St,Trolley,No,0,,No,APC (UTA),Data is from Fall 2017.  Route was bused in spring 2018.,30,177,207,5,54,59,3,64,67,39.92618,-75.224846,45a684aa-71e5-43cd-850d-37362cb18f06
-75.226496,39.925027,661,3620908W,City Fall 2017,36,Westbound,28,20908,ELM62NSW,Elmwood Av & 62nd St,Trolley,Yes,369,,No,APC (UTA),Data is from Fall 2017.  Route was bused in spring 2018.,167,228,395,62,73,135,51,77,128,39.925027,-75.226496,ef0dc281-5a8a-491c-900b-13bf23979059
-75.227671,39.924157,662,3620909W,City Fall 2017,36,Westbound,29,20909,ELM63RSW,Elmwood Av & 63rd St,Trolley,No,0,,No,APC (UTA),Data is from Fall 2017.  Route was bused in spring 2018.,50,136,186,14,29,43,10,45,55,39.924157,-75.227671,2452e165-d38e-427c-90ea-b24940fb392c
-75.229067,39.923204,663,3620910W,City Fall 2017,36,Westbound,30,20910,ELM64TSW,Elmwood Av & 64th St,Trolley,No,0,,No,APC (UTA),Data is from Fall 2017.  Route was bused in spring 2018.,21,128,149,9,32,41,3,35,38,39.923204,-75.229067,ca278f66-86ab-4e3d-985f-a2caa78f03c5
-75.230324,39.92231,664,3620911W,City Fall 2017,36,Westbound,31,20911,ELM65TSW,Elmwood Av & 65th St,Trolley,No,0,,No,APC (UTA),Data is from Fall 2017.  Route was bused in spring 2018.,49,229,278,22,64,86,16,78,94,39.92231,-75.230324,47ffc6e8-ec09-4220-9e03-380dc9389799
-75.231562,39.921432,665,3620912W,City Fall 2017,36,Westbound,32,20912,ELM66TSW,Elmwood Av & 66th St,Trolley,No,0,,No,APC (UTA),Data is from Fall 2017.  Route was bused in spring 2018.,38,222,260,9,49,58,9,52,61,39.921432,-75.231562,211164c2-dc73-4652-bdf5-77891b311718
-75.232877,39.920523,666,3620913W,City Fall 2017,36,Westbound,33,20913,ELM67TSW,Elmwood Av & 67th St,Trolley,No,0,,No,APC (UTA),Data is from Fall 2017.  Route was bused in spring 2018.,37,202,239,7,44,51,12,47,59,39.920523,-75.232877,77c44915-82ac-4d1b-8a76-ad239045d5ab
-75.234401,39.919446,667,3620914W,City Fall 2017,36,Westbound,34,20914,ELM68TSW,Elmwood Av & 68th St,Trolley,No,0,,No,APC (UTA),Data is from Fall 2017.  Route was bused in spring 2018.,19,132,151,7,40,47,7,37,44,39.919446,-75.234401,8f90b54a-2d1d-4226-b148-7b952f4a1c5d
-75.23584,39.918429,668,3620915W,City Fall 2017,36,Westbound,35,20915,ELM69TSW,Elmwood Av & 69th St,Trolley,No,0,,No,APC (UTA),Data is from Fall 2017.  Route was bused in spring 2018.,15,141,156,7,35,42,5,37,42,39.918429,-75.23584,1edbbe47-84e0-49ed-b2a4-733bf538f4fa
-75.237428,39.917327,669,3620916W,City Fall 2017,36,Westbound,36,20916,ELM70TSW,Elmwood Av & 70th St,Trolley,No,0,,No,APC (UTA),Data is from Fall 2017.  Route was bused in spring 2018.,25,271,296,11,56,67,10,51,61,39.917327,-75.237428,5e20efd9-4a8d-4005-8e61-521339b62a73
-75.238994,39.916228,670,3620917W,City Fall 2017,36,Westbound,37,20917,ELM71SSW,Elmwood Av & 71st St,Trolley,No,0,,No,APC (UTA),Data is from Fall 2017.  Route was bused in spring 2018.,18,206,224,6,37,43,7,47,54,39.916228,-75.238994,b21f0b93-7e7a-4678-b5e7-209307e4c7f4
-75.240365,39.915249,671,3620918W,City Fall 2017,36,Westbound,38,20918,ELM72NSW,Elmwood Av & 72nd St,Trolley,No,0,,No,APC (UTA),Data is from Fall 2017.  Route was bused in spring 2018.,11,116,127,2,23,25,2,20,22,39.915249,-75.240365,6f1c9a56-8b88-4160-9ee4-21fb93d11924
-75.241742,39.914303,672,36610W,City Fall 2017,36,Westbound,39,610,ELM73RSW,Elmwood Av & 73rd St,Trolley,Yes,368,EW73,No,APC (UTA),Data is from Fall 2017.  Route was bused in spring 2018.,49,250,299,13,45,58,9,42,51,39.914303,-75.241742,01a0cefd-1f24-416f-b957-12489c361d4c
-75.242908,39.913453,673,3620919W,City Fall 2017,36,Westbound,40,20919,ELMISLSW,Elmwood Av & Island Av,Trolley,Yes,0,PAIS,No,APC (UTA),Data is from Fall 2017.  Route was bused in spring 2018.,21,125,146,6,41,47,10,41,51,39.913453,-75.242908,703fdf96-bc97-4a0a-b2f6-122bb2e9a9a1
-75.242677,39.91405,674,36611W,City Fall 2017,36,Westbound,41,611,ELMLOOWE,Elmwood Loop,Trolley,Yes,367,ELLO,No,APC (UTA),Data is from Fall 2017.  Route was bused in spring 2018.,,,,,,,,,,39.91405,-75.242677,f8c65dca-eafd-48a7-8974-cc267453f769
-75.242685,39.91104,675,3620920W,City Fall 2017,36,Westbound,42,20920,ISLBUISO,Island Av & Buist Av - FS,Trolley,No,0,,No,APC (UTA),Data is from Fall 2017.  Route was bused in spring 2018.,15,138,153,6,37,43,4,41,45,39.91104,-75.242685,2819674b-0747-41b2-868f-7dd9739f8a6c
-75.242091,39.909212,676,3620921W,City Fall 2017,36,Westbound,43,20921,ISLTANSO,Island Av & Tanager St,Trolley,No,0,,No,APC (UTA),Data is from Fall 2017.  Route was bused in spring 2018.,6,57,63,1,10,11,2,8,10,39.909212,-75.242091,faf818de-60f1-452e-8f59-f94f1e3f7b99
-75.241545,39.907449,677,3620922W,City Fall 2017,36,Westbound,44,20922,ISL76TSO,Island Av & 76th St,Trolley,No,0,,No,APC (UTA),Data is from Fall 2017.  Route was bused in spring 2018.,3,92,95,1,21,22,0,19,19,39.907449,-75.241545,548a2af9-c4b7-4d6f-875b-12822fb035bb
-75.24036,39.903657,678,3620923W,City Fall 2017,36,Westbound,45,20923,ISLLINSO,Island Av & Lindbergh Blvd - FS,Trolley,No,0,,No,APC (UTA),Data is from Fall 2017.  Route was bused in spring 2018.,12,416,428,5,174,179,6,203,209,39.903657,-75.24036,e68e0fd1-6257-4be7-8a64-f304e07bf0f8
-75.239344,39.899528,679,3624738W,City Fall 2017,36,Westbound,46,24738,ISLSUFSO,Island Av & Suffolk Av - MBFS,Trolley,No,0,,No,APC (UTA),Data is from Fall 2017.  Route was bused in spring 2018.,4,124,128,5,54,59,1,59,60,39.899528,-75.239344,bbd276af-d176-4646-afac-8dfa083c8526
-75.239528,39.898903,680,36612W,City Fall 2017,36,Westbound,47,612,EASLOOSO,Island Av & 80th St Eastwick Loop ,Trolley,Yes,366,80LO,No,APC (UTA),Data is from Fall 2017.  Route was bused in spring 2018.,0,211,211,0,46,46,0,74,74,39.898903,-75.239528,bf6f957f-da91-45c5-8867-21996e930e36
